{		
	"entry":[
			{
				"title":"AVENIDA DE LA GRAN VIA DE SAN FRANCISCO N.19",
				"georss:point":"40.40988 -3.71393",
				"geo:lat":"40.40988",
				"geo:long":"-3.71393"
			},
			{
				"title":"AVENIDA DE LA GRAN VIA DE SAN FRANCISCO N.6",
				"georss:point":"40.40827 -3.71267",
				"geo:lat":"40.40827",
				"geo:long":"-3.71267"
			},
			{
				"title":"CALLE DE BAILEN N.4",
				"georss:point":"40.4189 -3.71296",
				"geo:lat":"40.4189",
				"geo:long":"-3.71296"
			},
			{
				"title":"CALLE DE BAILEN N.17",
				"georss:point":"40.41787 -3.71304",
				"geo:lat":"40.41787",
				"geo:long":"-3.71304"
			},
			{
				"title":"CALLE DE BAILEN N.19",
				"georss:point":"40.41547 -3.71334",
				"geo:lat":"40.41547",
				"geo:long":"-3.71334"
			},
			{
				"title":"CALLE DE BAILEN N.27",
				"georss:point":"40.41342 -3.7138",
				"geo:lat":"40.41342",
				"geo:long":"-3.7138"
			},
			{
				"title":"CALLE DE BEATRIZ GALINDO N.6",
				"georss:point":"40.41241 -3.71607",
				"geo:lat":"40.41241",
				"geo:long":"-3.71607"
			},
			{
				"title":"CALLE DE ISABEL LA CATOLICA N.1",
				"georss:point":"40.42062 -3.709",
				"geo:lat":"40.42062",
				"geo:long":"-3.709"
			},
			{
				"title":"CALLE DE LA ENCARNACION N.5",
				"georss:point":"40.4206 -3.71199",
				"geo:lat":"40.4206",
				"geo:long":"-3.71199"
			},
			{
				"title":"CALLE DE LA INDEPENDENCIA N.4",
				"georss:point":"40.41779 -3.70996",
				"geo:lat":"40.41779",
				"geo:long":"-3.70996"
			},
			{
				"title":"CALLE DE LA VENTOSA N.19",
				"georss:point":"40.40797 -3.71371",
				"geo:lat":"40.40797",
				"geo:long":"-3.71371"
			},
			{
				"title":"CALLE DE LAS TABERNILLAS N.19",
				"georss:point":"40.41048 -3.71154",
				"geo:lat":"40.41048",
				"geo:long":"-3.71154"
			},
			{
				"title":"CALLE DEL DOCTOR CARRACIDO N.1",
				"georss:point":"40.42259 -3.71061",
				"geo:lat":"40.42259",
				"geo:long":"-3.71061"
			},
			{
				"title":"PLAZA DE ORIENTE N.8",
				"georss:point":"40.41886 -3.7117",
				"geo:lat":"40.41886",
				"geo:long":"-3.7117"
			},
			{
				"title":"CALLE DE REQUENA N.7",
				"georss:point":"40.41734 -3.71306",
				"geo:lat":"40.41734",
				"geo:long":"-3.71306"
			},
			{
				"title":"CALLE  GRAN VIA N.51",
				"georss:point":"40.42133 -3.70796",
				"geo:lat":"40.42133",
				"geo:long":"-3.70796"
			},
			{
				"title":"CALLE DE SAN QUINTIN N.4",
				"georss:point":"40.41945 -3.71206",
				"geo:lat":"40.41945",
				"geo:long":"-3.71206"
			},
			{
				"title":"CALLE DEL CONDE DE LEMOS N.8",
				"georss:point":"40.41659 -3.71072",
				"geo:lat":"40.41659",
				"geo:long":"-3.71072"
			},
			{
				"title":"CALLE DE SEGOVIA N.23",
				"georss:point":"40.41396 -3.71406",
				"geo:lat":"40.41396",
				"geo:long":"-3.71406"
			},
			{
				"title":"CALLE DE SEGOVIA N.27",
				"georss:point":"40.41381 -3.71481",
				"geo:lat":"40.41381",
				"geo:long":"-3.71481"
			},
			{
				"title":"CALLE DE SEGOVIA N.28",
				"georss:point":"40.41399 -3.71528",
				"geo:lat":"40.41399",
				"geo:long":"-3.71528"
			},
			{
				"title":"CALLE DE SEGOVIA N.67",
				"georss:point":"40.41405 -3.71958",
				"geo:lat":"40.41405",
				"geo:long":"-3.71958"
			},
			{
				"title":"CALLE DE SEGOVIA N.75",
				"georss:point":"40.41418 -3.7208",
				"geo:lat":"40.41418",
				"geo:long":"-3.7208"
			},
			{
				"title":"CALLE DE TOLEDO N.75",
				"georss:point":"40.41063 -3.70907",
				"geo:lat":"40.41063",
				"geo:long":"-3.70907"
			},
			{
				"title":"CALLE DE TOLEDO N.86",
				"georss:point":"40.40865 -3.7106",
				"geo:lat":"40.40865",
				"geo:long":"-3.7106"
			},
			{
				"title":"CALLE DE TORIJA N.10",
				"georss:point":"40.42082 -3.71019",
				"geo:lat":"40.42082",
				"geo:long":"-3.71019"
			},
			{
				"title":"CALLE DE VERGARA N.3",
				"georss:point":"40.41789 -3.71047",
				"geo:lat":"40.41789",
				"geo:long":"-3.71047"
			},
			{
				"title":"CALLE DEL HUMILLADERO N.16",
				"georss:point":"40.41036 -3.7104",
				"geo:lat":"40.41036",
				"geo:long":"-3.7104"
			},
			{
				"title":"CALLE DEL ROSARIO N.6",
				"georss:point":"40.40942 -3.71476",
				"geo:lat":"40.40942",
				"geo:long":"-3.71476"
			},
			{
				"title":"CALLE DEL ROSARIO N.31",
				"georss:point":"40.40898 -3.71593",
				"geo:lat":"40.40898",
				"geo:long":"-3.71593"
			},
			{
				"title":"CALLE DEL DOCTOR CARRACIDO N.1",
				"georss:point":"40.42279 -3.71037",
				"geo:lat":"40.42279",
				"geo:long":"-3.71037"
			},
			{
				"title":"CALLE  MAYOR N.81",
				"georss:point":"40.41512 -3.7137",
				"geo:lat":"40.41512",
				"geo:long":"-3.7137"
			},
			{
				"title":"CALLE DE LAS AGUAS N.10",
				"georss:point":"40.41102 -3.71229",
				"geo:lat":"40.41102",
				"geo:long":"-3.71229"
			},
			{
				"title":"COSTANILLA DE LOS ANGELES N.11",
				"georss:point":"40.41909 -3.7082",
				"geo:lat":"40.41909",
				"geo:long":"-3.7082"
			},
			{
				"title":"COSTANILLA DE SAN ANDRES N.1",
				"georss:point":"40.41369 -3.71165",
				"geo:lat":"40.41369",
				"geo:long":"-3.71165"
			},
			{
				"title":"CALLE DE SEGOVIA N.11",
				"georss:point":"40.41341 -3.7103",
				"geo:lat":"40.41341",
				"geo:long":"-3.7103"
			},
			{
				"title":"CALLE DE BEATRIZ GALINDO N.1",
				"georss:point":"40.41337 -3.71474",
				"geo:lat":"40.41337",
				"geo:long":"-3.71474"
			},
			{
				"title":"CUESTA DE SAN VICENTE N.14",
				"georss:point":"40.42077 -3.71458",
				"geo:lat":"40.42077",
				"geo:long":"-3.71458"
			},
			{
				"title":"CUESTA DE SAN VICENTE N.2",
				"georss:point":"40.42161 -3.71332",
				"geo:lat":"40.42161",
				"geo:long":"-3.71332"
			},
			{
				"title":"CUESTA DE SANTO DOMINGO N.24",
				"georss:point":"40.41994 -3.70827",
				"geo:lat":"40.41994",
				"geo:long":"-3.70827"
			},
			{
				"title":"CUESTA DE SANTO DOMINGO N.7",
				"georss:point":"40.41977 -3.70946",
				"geo:lat":"40.41977",
				"geo:long":"-3.70946"
			},
			{
				"title":"CUESTA DE LA VEGA N.3",
				"georss:point":"40.41475 -3.71696",
				"geo:lat":"40.41475",
				"geo:long":"-3.71696"
			},
			{
				"title":"CUESTA DE LA VEGA N.1",
				"georss:point":"40.41463 -3.71541",
				"geo:lat":"40.41463",
				"geo:long":"-3.71541"
			},
			{
				"title":"CALLE DE SEGOVIA N.30",
				"georss:point":"40.41505 -3.71865",
				"geo:lat":"40.41505",
				"geo:long":"-3.71865"
			},
			{
				"title":"PASEO DE LA VIRGEN DEL PUERTO N.3",
				"georss:point":"40.41735 -3.72064",
				"geo:lat":"40.41735",
				"geo:long":"-3.72064"
			},
			{
				"title":"PASEO  BAJO DE LA VIRGEN DEL PUERTO N.2",
				"georss:point":"40.41615 -3.72047",
				"geo:lat":"40.41615",
				"geo:long":"-3.72047"
			},
			{
				"title":"PASEO DE LA VIRGEN DEL PUERTO N.4",
				"georss:point":"40.41606 -3.72093",
				"geo:lat":"40.41606",
				"geo:long":"-3.72093"
			},
			{
				"title":"PASEO DE LA VIRGEN DEL PUERTO N.3",
				"georss:point":"40.41485 -3.7205",
				"geo:lat":"40.41485",
				"geo:long":"-3.7205"
			},
			{
				"title":"PASEO DE LA VIRGEN DEL PUERTO N.4",
				"georss:point":"40.41558 -3.72087",
				"geo:lat":"40.41558",
				"geo:long":"-3.72087"
			},
			{
				"title":"CALLE DE SEGOVIA N.81",
				"georss:point":"40.41412 -3.72154",
				"geo:lat":"40.41412",
				"geo:long":"-3.72154"
			},
			{
				"title":"PLAZA DE ESPAÑA N.2",
				"georss:point":"40.42302 -3.71121",
				"geo:lat":"40.42302",
				"geo:long":"-3.71121"
			},
			{
				"title":"PLAZA DE ESPAÑA N.8",
				"georss:point":"40.42222 -3.71268",
				"geo:lat":"40.42222",
				"geo:long":"-3.71268"
			},
			{
				"title":"PLAZA DE GABRIEL MIRO N.2",
				"georss:point":"40.41232 -3.71475",
				"geo:lat":"40.41232",
				"geo:long":"-3.71475"
			},
			{
				"title":"PLAZA DE GABRIEL MIRO N.7",
				"georss:point":"40.41208 -3.71523",
				"geo:lat":"40.41208",
				"geo:long":"-3.71523"
			},
			{
				"title":"PLAZA DE ISABEL II N.1",
				"georss:point":"40.41792 -3.70919",
				"geo:lat":"40.41792",
				"geo:long":"-3.70919"
			},
			{
				"title":"PLAZA DE LA CEBADA N.1",
				"georss:point":"40.41121 -3.70867",
				"geo:lat":"40.41121",
				"geo:long":"-3.70867"
			},
			{
				"title":"PLAZA DE LA ENCARNACION N.2",
				"georss:point":"40.41968 -3.71116",
				"geo:lat":"40.41968",
				"geo:long":"-3.71116"
			},
			{
				"title":"PLAZA DE LA PAJA N.2",
				"georss:point":"40.41298 -3.71156",
				"geo:lat":"40.41298",
				"geo:long":"-3.71156"
			},
			{
				"title":"PLAZA DE LA VIRGEN DE LA PALOMA N.4",
				"georss:point":"40.40824 -3.71212",
				"geo:lat":"40.40824",
				"geo:long":"-3.71212"
			},
			{
				"title":"PLAZA DE LOS CARROS N.3",
				"georss:point":"40.41176 -3.71142",
				"geo:lat":"40.41176",
				"geo:long":"-3.71142"
			},
			{
				"title":"PLAZA DE LOS HERRADORES N.4",
				"georss:point":"40.416443 -3.708675",
				"geo:lat":"40.416443",
				"geo:long":"-3.708675"
			},
			{
				"title":"PLAZA DE ORIENTE N.1",
				"georss:point":"40.41783 -3.71182",
				"geo:lat":"40.41783",
				"geo:long":"-3.71182"
			},
			{
				"title":"PLAZA DE RAMALES N.4",
				"georss:point":"40.41701 -3.71174",
				"geo:lat":"40.41701",
				"geo:long":"-3.71174"
			},
			{
				"title":"PLAZA DE SAN FRANCISCO N.5",
				"georss:point":"40.41089 -3.71412",
				"geo:lat":"40.41089",
				"geo:long":"-3.71412"
			},
			{
				"title":"PLAZA DE SAN MIGUEL N.2",
				"georss:point":"40.41552 -3.70926",
				"geo:lat":"40.41552",
				"geo:long":"-3.70926"
			},
			{
				"title":"PLAZA DEL CONDE DE BARAJAS N.5",
				"georss:point":"40.41452 -3.70876",
				"geo:lat":"40.41452",
				"geo:long":"-3.70876"
			},
			{
				"title":"CALLE DE LA CAVA BAJA N.42",
				"georss:point":"40.41161 -3.71054",
				"geo:lat":"40.41161",
				"geo:long":"-3.71054"
			},
			{
				"title":"RONDA DE SEGOVIA N.17",
				"georss:point":"40.41167 -3.71784",
				"geo:lat":"40.41167",
				"geo:long":"-3.71784"
			},
			{
				"title":"CUESTA DE LAS DESCARGAS N.5",
				"georss:point":"40.40815 -3.71516",
				"geo:lat":"40.40815",
				"geo:long":"-3.71516"
			},
			{
				"title":"RONDA DE SEGOVIA N.73",
				"georss:point":"40.40752 -3.71344",
				"geo:lat":"40.40752",
				"geo:long":"-3.71344"
			},
			{
				"title":"CALLE DE AMPARO N.24",
				"georss:point":"40.40994 -3.70355",
				"geo:lat":"40.40994",
				"geo:long":"-3.70355"
			},
			{
				"title":"CALLE DE ARGUMOSA N.32",
				"georss:point":"40.40708 -3.6956",
				"geo:lat":"40.40708",
				"geo:long":"-3.6956"
			},
			{
				"title":"CALLE DE ARGUMOSA N.35",
				"georss:point":"40.40787 -3.6968",
				"geo:lat":"40.40787",
				"geo:long":"-3.6968"
			},
			{
				"title":"CALLE DE ARGUMOSA N.37",
				"georss:point":"40.40783 -3.69641",
				"geo:lat":"40.40783",
				"geo:long":"-3.69641"
			},
			{
				"title":"CALLE DE ATOCHA N.118",
				"georss:point":"40.40929 -3.6929",
				"geo:lat":"40.40929",
				"geo:long":"-3.6929"
			},
			{
				"title":"CALLE DE ATOCHA N.74",
				"georss:point":"40.41145 -3.69753",
				"geo:lat":"40.41145",
				"geo:long":"-3.69753"
			},
			{
				"title":"CALLE DE ATOCHA N.94",
				"georss:point":"40.41075 -3.69612",
				"geo:lat":"40.41075",
				"geo:long":"-3.69612"
			},
			{
				"title":"CALLE DE EMBAJADORES N.12",
				"georss:point":"40.41007 -3.70645",
				"geo:lat":"40.41007",
				"geo:long":"-3.70645"
			},
			{
				"title":"CALLE DE EMBAJADORES N.17",
				"georss:point":"40.40927 -3.70563",
				"geo:lat":"40.40927",
				"geo:long":"-3.70563"
			},
			{
				"title":"CALLE DE EMBAJADORES N.27",
				"georss:point":"40.40882 -3.70515",
				"geo:lat":"40.40882",
				"geo:long":"-3.70515"
			},
			{
				"title":"CALLE DE EMBAJADORES N.39",
				"georss:point":"40.40782 -3.70413",
				"geo:lat":"40.40782",
				"geo:long":"-3.70413"
			},
			{
				"title":"CALLE DE EMBAJADORES N.47",
				"georss:point":"40.40693 -3.70376",
				"geo:lat":"40.40693",
				"geo:long":"-3.70376"
			},
			{
				"title":"CALLE DE JUANELO N.6",
				"georss:point":"40.41136 -3.70514",
				"geo:lat":"40.41136",
				"geo:long":"-3.70514"
			},
			{
				"title":"CALLE DE LA ARGANZUELA N.1",
				"georss:point":"40.40886 -3.71026",
				"geo:lat":"40.40886",
				"geo:long":"-3.71026"
			},
			{
				"title":"CALLE DE LA ARGANZUELA N.35",
				"georss:point":"40.40664 -3.70905",
				"geo:lat":"40.40664",
				"geo:long":"-3.70905"
			},
			{
				"title":"CALLE DE LA COLEGIATA N.19",
				"georss:point":"40.41325 -3.70727",
				"geo:lat":"40.41325",
				"geo:long":"-3.70727"
			},
			{
				"title":"CALLE DE LA CONCEPCION JERONIMA N.1",
				"georss:point":"40.41419 -3.70403",
				"geo:lat":"40.41419",
				"geo:long":"-3.70403"
			},
			{
				"title":"CALLE DE LA MAGDALENA N.2",
				"georss:point":"40.4124 -3.70313",
				"geo:lat":"40.4124",
				"geo:long":"-3.70313"
			},
			{
				"title":"CALLE DE LA RIBERA DE CURTIDORES N.1",
				"georss:point":"40.40979 -3.70723",
				"geo:lat":"40.40979",
				"geo:long":"-3.70723"
			},
			{
				"title":"CALLE DE LA RIBERA DE CURTIDORES N.14",
				"georss:point":"40.40791 -3.70729",
				"geo:lat":"40.40791",
				"geo:long":"-3.70729"
			},
			{
				"title":"CALLE DE LA RIBERA DE CURTIDORES N.6",
				"georss:point":"40.40898 -3.70739",
				"geo:lat":"40.40898",
				"geo:long":"-3.70739"
			},
			{
				"title":"CALLE DE ARGUMOSA N.18",
				"georss:point":"40.40796 -3.69828",
				"geo:lat":"40.40796",
				"geo:long":"-3.69828"
			},
			{
				"title":"CALLE DE ATOCHA N.30",
				"georss:point":"40.41333 -3.7015",
				"geo:lat":"40.41333",
				"geo:long":"-3.7015"
			},
			{
				"title":"CALLE DE LAVAPIES N.19",
				"georss:point":"40.41062 -3.70256",
				"geo:lat":"40.41062",
				"geo:long":"-3.70256"
			},
			{
				"title":"CALLE DE LUIS VELEZ DE GUEVARA N.20",
				"georss:point":"40.41244 -3.7025",
				"geo:lat":"40.41244",
				"geo:long":"-3.7025"
			},
			{
				"title":"CALLE DE MIGUEL SERVET N.1",
				"georss:point":"40.4076 -3.70051",
				"geo:lat":"40.4076",
				"geo:long":"-3.70051"
			},
			{
				"title":"CALLE DE MIGUEL SERVET N.11",
				"georss:point":"40.40672 -3.70124",
				"geo:lat":"40.40672",
				"geo:long":"-3.70124"
			},
			{
				"title":"CALLE DE MIRA EL SOL N.21",
				"georss:point":"40.40691 -3.70714",
				"geo:lat":"40.40691",
				"geo:long":"-3.70714"
			},
			{
				"title":"CALLE DE LAVAPIES N.27",
				"georss:point":"40.41031 -3.70246",
				"geo:lat":"40.41031",
				"geo:long":"-3.70246"
			},
			{
				"title":"CALLE DEL DOCTOR MATA N.2",
				"georss:point":"40.40916 -3.69419",
				"geo:lat":"40.40916",
				"geo:long":"-3.69419"
			},
			{
				"title":"CALLE DE SANTA ISABEL N.10",
				"georss:point":"40.41188 -3.69953",
				"geo:lat":"40.41188",
				"geo:long":"-3.69953"
			},
			{
				"title":"CALLE DE SANTA ISABEL N.40",
				"georss:point":"40.41027 -3.69765",
				"geo:lat":"40.41027",
				"geo:long":"-3.69765"
			},
			{
				"title":"CALLE DEL MARQUES DE TOCA N.14",
				"georss:point":"40.40973 -3.69639",
				"geo:lat":"40.40973",
				"geo:long":"-3.69639"
			},
			{
				"title":"CALLE DE SANTA ISABEL N.48",
				"georss:point":"40.40943 -3.69588",
				"geo:lat":"40.40943",
				"geo:long":"-3.69588"
			},
			{
				"title":"CALLE DE TOLEDO N.101",
				"georss:point":"40.40926 -3.70994",
				"geo:lat":"40.40926",
				"geo:long":"-3.70994"
			},
			{
				"title":"CALLE DE TOLEDO N.41",
				"georss:point":"40.41246 -3.70762",
				"geo:lat":"40.41246",
				"geo:long":"-3.70762"
			},
			{
				"title":"CALLE DEL AVE MARIA N.23",
				"georss:point":"40.41064 -3.70072",
				"geo:lat":"40.41064",
				"geo:long":"-3.70072"
			},
			{
				"title":"CALLE DEL CAPITAN SALAZAR MARTINEZ N.2",
				"georss:point":"40.40744 -3.71008",
				"geo:lat":"40.40744",
				"geo:long":"-3.71008"
			},
			{
				"title":"CALLE DEL CASINO N.5",
				"georss:point":"40.40663 -3.70539",
				"geo:lat":"40.40663",
				"geo:long":"-3.70539"
			},
			{
				"title":"CALLE DE LA COLEGIATA N.1",
				"georss:point":"40.41251 -3.70509",
				"geo:lat":"40.41251",
				"geo:long":"-3.70509"
			},
			{
				"title":"CALLE DEL DOCTOR FOURQUET N.20",
				"georss:point":"40.40745 -3.69779",
				"geo:lat":"40.40745",
				"geo:long":"-3.69779"
			},
			{
				"title":"CALLE DEL DOCTOR FOURQUET N.41",
				"georss:point":"40.40684 -3.69982",
				"geo:lat":"40.40684",
				"geo:long":"-3.69982"
			},
			{
				"title":"CALLE DEL DUQUE DE ALBA N.2",
				"georss:point":"40.41204 -3.70556",
				"geo:lat":"40.41204",
				"geo:long":"-3.70556"
			},
			{
				"title":"CALLE DEL DUQUE DE RIVAS N.5",
				"georss:point":"40.41317 -3.70635",
				"geo:lat":"40.41317",
				"geo:long":"-3.70635"
			},
			{
				"title":"CALLE DEL MESON DE PAREDES N.35",
				"georss:point":"40.40973 -3.70391",
				"geo:lat":"40.40973",
				"geo:long":"-3.70391"
			},
			{
				"title":"CALLE DEL MESON DE PAREDES N.61",
				"georss:point":"40.40828 -3.70313",
				"geo:lat":"40.40828",
				"geo:long":"-3.70313"
			},
			{
				"title":"CALLE DE LA CABEZA N.25",
				"georss:point":"40.41199 -3.70173",
				"geo:lat":"40.41199",
				"geo:long":"-3.70173"
			},
			{
				"title":"CALLE DEL SALITRE N.48",
				"georss:point":"40.40842 -3.69967",
				"geo:lat":"40.40842",
				"geo:long":"-3.69967"
			},
			{
				"title":"GLORIETA DE EMBAJADORES N.10",
				"georss:point":"40.40559 -3.70295",
				"geo:lat":"40.40559",
				"geo:long":"-3.70295"
			},
			{
				"title":"GLORIETA DE LA PUERTA DE TOLEDO N.1",
				"georss:point":"40.40695 -3.7111",
				"geo:lat":"40.40695",
				"geo:long":"-3.7111"
			},
			{
				"title":"PLAZA DE CASCORRO N.3",
				"georss:point":"40.4109 -3.70722",
				"geo:lat":"40.4109",
				"geo:long":"-3.70722"
			},
			{
				"title":"PLAZA DE TIRSO DE MOLINA N.17",
				"georss:point":"40.4124 -3.70412",
				"geo:lat":"40.4124",
				"geo:long":"-3.70412"
			},
			{
				"title":"PLAZA DEL CAMPILLO DEL MUNDO NUEVO N.2",
				"georss:point":"40.40678 -3.70825",
				"geo:lat":"40.40678",
				"geo:long":"-3.70825"
			},
			{
				"title":"PLAZA DEL CAMPILLO DEL MUNDO NUEVO N.3",
				"georss:point":"40.40619 -3.70864",
				"geo:lat":"40.40619",
				"geo:long":"-3.70864"
			},
			{
				"title":"PLAZA DEL EMPERADOR CARLOS V N.8",
				"georss:point":"40.40823 -3.69297",
				"geo:lat":"40.40823",
				"geo:long":"-3.69297"
			},
			{
				"title":"PLAZA DEL GENERAL VARA DE REY N.11",
				"georss:point":"40.4094 -3.70844",
				"geo:lat":"40.4094",
				"geo:long":"-3.70844"
			},
			{
				"title":"PLAZA DE LAVAPIES N.1",
				"georss:point":"40.409 -3.70123",
				"geo:lat":"40.409",
				"geo:long":"-3.70123"
			},
			{
				"title":"PLAZA DE LAVAPIES N.6",
				"georss:point":"40.40865 -3.70106",
				"geo:lat":"40.40865",
				"geo:long":"-3.70106"
			},
			{
				"title":"RONDA DE ATOCHA N.24",
				"georss:point":"40.40638 -3.69814",
				"geo:lat":"40.40638",
				"geo:long":"-3.69814"
			},
			{
				"title":"RONDA DE ATOCHA N.36",
				"georss:point":"40.40604 -3.69937",
				"geo:lat":"40.40604",
				"geo:long":"-3.69937"
			},
			{
				"title":"RONDA DE TOLEDO N.9",
				"georss:point":"40.40556 -3.70513",
				"geo:lat":"40.40556",
				"geo:long":"-3.70513"
			},
			{
				"title":"RONDA DE TOLEDO N.5",
				"georss:point":"40.40598 -3.70725",
				"geo:lat":"40.40598",
				"geo:long":"-3.70725"
			},
			{
				"title":"RONDA DE VALENCIA N.8",
				"georss:point":"40.40568 -3.70071",
				"geo:lat":"40.40568",
				"geo:long":"-3.70071"
			},
			{
				"title":"CALLE DE ALCALA N.39",
				"georss:point":"40.41874 -3.69707",
				"geo:lat":"40.41874",
				"geo:long":"-3.69707"
			},
			{
				"title":"CALLE DE ATOCHA N.107",
				"georss:point":"40.41054 -3.69521",
				"geo:lat":"40.41054",
				"geo:long":"-3.69521"
			},
			{
				"title":"CALLE DE ATOCHA N.58",
				"georss:point":"40.41221 -3.69875",
				"geo:lat":"40.41221",
				"geo:long":"-3.69875"
			},
			{
				"title":"CALLE DE ATOCHA N.89",
				"georss:point":"40.41122 -3.69673",
				"geo:lat":"40.41122",
				"geo:long":"-3.69673"
			},
			{
				"title":"CALLE DE CEDACEROS N.3",
				"georss:point":"40.41766 -3.69843",
				"geo:lat":"40.41766",
				"geo:long":"-3.69843"
			},
			{
				"title":"CALLE DE CEDACEROS N.9",
				"georss:point":"40.41707 -3.69835",
				"geo:lat":"40.41707",
				"geo:long":"-3.69835"
			},
			{
				"title":"PLAZA DE CANOVAS DEL CASTILLO N.4",
				"georss:point":"40.41494 -3.69485",
				"geo:lat":"40.41494",
				"geo:long":"-3.69485"
			},
			{
				"title":"CALLE DE LA ALAMEDA N.15",
				"georss:point":"40.41066 -3.6938",
				"geo:lat":"40.41066",
				"geo:long":"-3.6938"
			},
			{
				"title":"CALLE DE LA VIRGEN DE LOS PELIGROS N.14",
				"georss:point":"40.41906 -3.69964",
				"geo:lat":"40.41906",
				"geo:long":"-3.69964"
			},
			{
				"title":"CALLE DE LAS HUERTAS N.32",
				"georss:point":"40.41347 -3.69825",
				"geo:lat":"40.41347",
				"geo:long":"-3.69825"
			},
			{
				"title":"CALLE DE LAS HUERTAS N.70",
				"georss:point":"40.41306 -3.69554",
				"geo:lat":"40.41306",
				"geo:long":"-3.69554"
			},
			{
				"title":"CALLE DE LOS MADRAZO N.21",
				"georss:point":"40.41768 -3.69599",
				"geo:lat":"40.41768",
				"geo:long":"-3.69599"
			},
			{
				"title":"CALLE DE MORATIN N.30",
				"georss:point":"40.41253 -3.69579",
				"geo:lat":"40.41253",
				"geo:long":"-3.69579"
			},
			{
				"title":"CALLE DE LOPE DE VEGA N.23",
				"georss:point":"40.41373 -3.69702",
				"geo:lat":"40.41373",
				"geo:long":"-3.69702"
			},
			{
				"title":"PLAZA DE LAS CORTES N.9",
				"georss:point":"40.41539 -3.69692",
				"geo:lat":"40.41539",
				"geo:long":"-3.69692"
			},
			{
				"title":"CALLE DE SAN PEDRO N.14",
				"georss:point":"40.41186 -3.6948",
				"geo:lat":"40.41186",
				"geo:long":"-3.6948"
			},
			{
				"title":"CALLE DEL CABALLERO DE GRACIA N.38",
				"georss:point":"40.41899 -3.69766",
				"geo:lat":"40.41899",
				"geo:long":"-3.69766"
			},
			{
				"title":"CALLE DEL GOBERNADOR N.32",
				"georss:point":"40.41141 -3.69343",
				"geo:lat":"40.41141",
				"geo:long":"-3.69343"
			},
			{
				"title":"CALLE DEL PRADO N.18",
				"georss:point":"40.4149 -3.69849",
				"geo:lat":"40.4149",
				"geo:long":"-3.69849"
			},
			{
				"title":"CALLE DE ALCALA N.46",
				"georss:point":"40.41859 -3.69584",
				"geo:lat":"40.41859",
				"geo:long":"-3.69584"
			},
			{
				"title":"CALLE DEL MARQUES DE CUBAS N.19",
				"georss:point":"40.4168 -3.69549",
				"geo:lat":"40.4168",
				"geo:long":"-3.69549"
			},
			{
				"title":"CALLE DEL PRADO N.4",
				"georss:point":"40.41456 -3.69982",
				"geo:lat":"40.41456",
				"geo:long":"-3.69982"
			},
			{
				"title":"CALLE DE LAS HUERTAS N.16",
				"georss:point":"40.41396 -3.70018",
				"geo:lat":"40.41396",
				"geo:long":"-3.70018"
			},
			{
				"title":"PLAZA DE CANOVAS DEL CASTILLO N.3",
				"georss:point":"40.41468 -3.69404",
				"geo:lat":"40.41468",
				"geo:long":"-3.69404"
			},
			{
				"title":"PASEO DEL PRADO N.24",
				"georss:point":"40.41227 -3.6931",
				"geo:lat":"40.41227",
				"geo:long":"-3.6931"
			},
			{
				"title":"PASEO DEL PRADO N.8",
				"georss:point":"40.41581 -3.69445",
				"geo:lat":"40.41581",
				"geo:long":"-3.69445"
			},
			{
				"title":"PASEO DEL PRADO N.2",
				"georss:point":"40.41845 -3.69347",
				"geo:lat":"40.41845",
				"geo:long":"-3.69347"
			},
			{
				"title":"CALLE DE CERVANTES N.38",
				"georss:point":"40.41428 -3.69578",
				"geo:lat":"40.41428",
				"geo:long":"-3.69578"
			},
			{
				"title":"PLAZA DE LA PLATERIA DE MARTINEZ N.3",
				"georss:point":"40.41298 -3.69328",
				"geo:lat":"40.41298",
				"geo:long":"-3.69328"
			},
			{
				"title":"PLAZA DE LA PLATERIA DE MARTINEZ N.3",
				"georss:point":"40.4128 -3.69364",
				"geo:lat":"40.4128",
				"geo:long":"-3.69364"
			},
			{
				"title":"PLAZA DE LAS CORTES N.3",
				"georss:point":"40.41588 -3.69584",
				"geo:lat":"40.41588",
				"geo:long":"-3.69584"
			},
			{
				"title":"PLAZA DE SANTA ANA N.12",
				"georss:point":"40.41439 -3.70115",
				"geo:lat":"40.41439",
				"geo:long":"-3.70115"
			},
			{
				"title":"CALLE DEL PRINCIPE N.27",
				"georss:point":"40.4146 -3.70033",
				"geo:lat":"40.4146",
				"geo:long":"-3.70033"
			},
			{
				"title":"CALLE DE ARGENSOLA N.10",
				"georss:point":"40.42524 -3.6949",
				"geo:lat":"40.42524",
				"geo:long":"-3.6949"
			},
			{
				"title":"CALLE DE BARCELO N.11",
				"georss:point":"40.42686 -3.69982",
				"geo:lat":"40.42686",
				"geo:long":"-3.69982"
			},
			{
				"title":"CALLE DE BARCELO N.2",
				"georss:point":"40.42636 -3.70017",
				"geo:lat":"40.42636",
				"geo:long":"-3.70017"
			},
			{
				"title":"CALLE DE BARCELO N.2",
				"georss:point":"40.42604 -3.70014",
				"geo:lat":"40.42604",
				"geo:long":"-3.70014"
			},
			{
				"title":"CALLE DE BARCELO N.7",
				"georss:point":"40.42661 -3.70045",
				"geo:lat":"40.42661",
				"geo:long":"-3.70045"
			},
			{
				"title":"CALLE DE BELEN N.15",
				"georss:point":"40.42454 -3.69559",
				"geo:lat":"40.42454",
				"geo:long":"-3.69559"
			},
			{
				"title":"CALLE DE BELEN N.8",
				"georss:point":"40.42411 -3.69649",
				"geo:lat":"40.42411",
				"geo:long":"-3.69649"
			},
			{
				"title":"CALLE DE CAMPOAMOR N.1",
				"georss:point":"40.42548 -3.69638",
				"geo:lat":"40.42548",
				"geo:long":"-3.69638"
			},
			{
				"title":"CALLE DE CHURRUCA N.29",
				"georss:point":"40.42868 -3.70134",
				"geo:lat":"40.42868",
				"geo:long":"-3.70134"
			},
			{
				"title":"CALLE DE CHURRUCA N.6",
				"georss:point":"40.42725 -3.70078",
				"geo:lat":"40.42725",
				"geo:long":"-3.70078"
			},
			{
				"title":"CALLE DE FUENCARRAL N.110",
				"georss:point":"40.42862 -3.70216",
				"geo:lat":"40.42862",
				"geo:long":"-3.70216"
			},
			{
				"title":"CALLE DE FUENCARRAL N.44",
				"georss:point":"40.42318 -3.70066",
				"geo:lat":"40.42318",
				"geo:long":"-3.70066"
			},
			{
				"title":"CALLE DE GENOVA N.14",
				"georss:point":"40.42677 -3.69425",
				"geo:lat":"40.42677",
				"geo:long":"-3.69425"
			},
			{
				"title":"CALLE DE GENOVA N.2",
				"georss:point":"40.42738 -3.69543",
				"geo:lat":"40.42738",
				"geo:long":"-3.69543"
			},
			{
				"title":"PLAZA DE CHUECA N.7",
				"georss:point":"40.42291 -3.69744",
				"geo:lat":"40.42291",
				"geo:long":"-3.69744"
			},
			{
				"title":"CALLE DE HORTALEZA N.1",
				"georss:point":"40.42015 -3.70119",
				"geo:lat":"40.42015",
				"geo:long":"-3.70119"
			},
			{
				"title":"CALLE DE HORTALEZA N.114",
				"georss:point":"40.42593 -3.69711",
				"geo:lat":"40.42593",
				"geo:long":"-3.69711"
			},
			{
				"title":"CALLE DE HORTALEZA N.45",
				"georss:point":"40.42271 -3.69939",
				"geo:lat":"40.42271",
				"geo:long":"-3.69939"
			},
			{
				"title":"CALLE DE HORTALEZA N.7",
				"georss:point":"40.42068 -3.70087",
				"geo:lat":"40.42068",
				"geo:long":"-3.70087"
			},
			{
				"title":"CALLE DE HORTALEZA N.73",
				"georss:point":"40.42511 -3.69785",
				"geo:lat":"40.42511",
				"geo:long":"-3.69785"
			},
			{
				"title":"CALLE DE HORTALEZA N.80",
				"georss:point":"40.4236 -3.69867",
				"geo:lat":"40.4236",
				"geo:long":"-3.69867"
			},
			{
				"title":"CALLE DE LAS INFANTAS N.20",
				"georss:point":"40.42072 -3.69953",
				"geo:lat":"40.42072",
				"geo:long":"-3.69953"
			},
			{
				"title":"CALLE DE LAS INFANTAS N.27",
				"georss:point":"40.41998 -3.69714",
				"geo:lat":"40.41998",
				"geo:long":"-3.69714"
			},
			{
				"title":"CALLE DE MEJIA LEQUERICA N.18",
				"georss:point":"40.4275 -3.69913",
				"geo:lat":"40.4275",
				"geo:long":"-3.69913"
			},
			{
				"title":"CALLE DE MEJIA LEQUERICA N.20",
				"georss:point":"40.42822 -3.6993",
				"geo:lat":"40.42822",
				"geo:long":"-3.6993"
			},
			{
				"title":"CALLE DEL GENERAL CASTAÑOS N.7",
				"georss:point":"40.42545 -3.69348",
				"geo:lat":"40.42545",
				"geo:long":"-3.69348"
			},
			{
				"title":"CALLE DE ORELLANA N.8",
				"georss:point":"40.4265 -3.69522",
				"geo:lat":"40.4265",
				"geo:long":"-3.69522"
			},
			{
				"title":"CALLE DE PELAYO N.13",
				"georss:point":"40.42246 -3.69879",
				"geo:lat":"40.42246",
				"geo:long":"-3.69879"
			},
			{
				"title":"CALLE DE PELAYO N.40",
				"georss:point":"40.42339 -3.69802",
				"geo:lat":"40.42339",
				"geo:long":"-3.69802"
			},
			{
				"title":"CALLE DE SAGASTA N.10",
				"georss:point":"40.42846 -3.70027",
				"geo:lat":"40.42846",
				"geo:long":"-3.70027"
			},
			{
				"title":"CALLE DE ANTONIO FLORES N.3",
				"georss:point":"40.42805 -3.69817",
				"geo:lat":"40.42805",
				"geo:long":"-3.69817"
			},
			{
				"title":"CALLE DE SAN GREGORIO N.13",
				"georss:point":"40.42388 -3.69714",
				"geo:lat":"40.42388",
				"geo:long":"-3.69714"
			},
			{
				"title":"CALLE DE SAN MATEO N.23",
				"georss:point":"40.42625 -3.69791",
				"geo:lat":"40.42625",
				"geo:long":"-3.69791"
			},
			{
				"title":"CALLE DE SAN MATEO N.8",
				"georss:point":"40.4252 -3.70001",
				"geo:lat":"40.4252",
				"geo:long":"-3.70001"
			},
			{
				"title":"CALLE DE VALGAME DIOS N.1",
				"georss:point":"40.42215 -3.69674",
				"geo:lat":"40.42215",
				"geo:long":"-3.69674"
			},
			{
				"title":"CALLE DEL BARQUILLO N.13",
				"georss:point":"40.4212 -3.69573",
				"geo:lat":"40.4212",
				"geo:long":"-3.69573"
			},
			{
				"title":"CALLE DE AUGUSTO FIGUEROA N.49",
				"georss:point":"40.42196 -3.69574",
				"geo:lat":"40.42196",
				"geo:long":"-3.69574"
			},
			{
				"title":"PLAZA DEL REY N.1",
				"georss:point":"40.42026 -3.69569",
				"geo:lat":"40.42026",
				"geo:long":"-3.69569"
			},
			{
				"title":"CALLE DEL ALMIRANTE N.11",
				"georss:point":"40.42258 -3.69425",
				"geo:lat":"40.42258",
				"geo:long":"-3.69425"
			},
			{
				"title":"CALLE DEL GENERAL CASTAÑOS N.11",
				"georss:point":"40.42577 -3.69385",
				"geo:lat":"40.42577",
				"geo:long":"-3.69385"
			},
			{
				"title":"CALLE DEL GENERAL CASTAÑOS N.2",
				"georss:point":"40.42477 -3.69401",
				"geo:lat":"40.42477",
				"geo:long":"-3.69401"
			},
			{
				"title":"CALLE DEL MARQUES DE LA ENSENADA N.12",
				"georss:point":"40.42471 -3.69234",
				"geo:lat":"40.42471",
				"geo:long":"-3.69234"
			},
			{
				"title":"CALLE DEL MARQUES DE LA ENSENADA N.3",
				"georss:point":"40.42561 -3.69216",
				"geo:lat":"40.42561",
				"geo:long":"-3.69216"
			},
			{
				"title":"CALLE DE ALCALA N.41",
				"georss:point":"40.41914 -3.69697",
				"geo:lat":"40.41914",
				"geo:long":"-3.69697"
			},
			{
				"title":"PASEO DE RECOLETOS N.17",
				"georss:point":"40.42175 -3.69226",
				"geo:lat":"40.42175",
				"geo:long":"-3.69226"
			},
			{
				"title":"PASEO DE RECOLETOS N.25",
				"georss:point":"40.42307 -3.69168",
				"geo:lat":"40.42307",
				"geo:long":"-3.69168"
			},
			{
				"title":"PASEO DE RECOLETOS N.39",
				"georss:point":"40.42442 -3.69107",
				"geo:lat":"40.42442",
				"geo:long":"-3.69107"
			},
			{
				"title":"CALLE DEL GENERAL CASTAÑOS N.2",
				"georss:point":"40.42433 -3.69433",
				"geo:lat":"40.42433",
				"geo:long":"-3.69433"
			},
			{
				"title":"CALLE DE BARBARA DE BRAGANZA N.1",
				"georss:point":"40.42394 -3.69427",
				"geo:lat":"40.42394",
				"geo:long":"-3.69427"
			},
			{
				"title":"CALLE DE HORTALEZA N.87",
				"georss:point":"40.42664 -3.69666",
				"geo:lat":"40.42664",
				"geo:long":"-3.69666"
			},
			{
				"title":"CALLE DE ORELLANA N.1",
				"georss:point":"40.42696 -3.69599",
				"geo:lat":"40.42696",
				"geo:long":"-3.69599"
			},
			{
				"title":"PLAZA DE PEDRO ZEROLO N.10",
				"georss:point":"40.42101 -3.69908",
				"geo:lat":"40.42101",
				"geo:long":"-3.69908"
			},
			{
				"title":"CALLE DE ALBERTO AGUILERA N.38",
				"georss:point":"40.43008 -3.7118",
				"geo:lat":"40.43008",
				"geo:long":"-3.7118"
			},
			{
				"title":"CALLE DE ALBERTO AGUILERA N.33",
				"georss:point":"40.43024 -3.71357",
				"geo:lat":"40.43024",
				"geo:long":"-3.71357"
			},
			{
				"title":"CALLE DE ALBERTO AGUILERA N.7",
				"georss:point":"40.42971 -3.70817",
				"geo:lat":"40.42971",
				"geo:long":"-3.70817"
			},
			{
				"title":"CALLE DE AMANIEL N.30",
				"georss:point":"40.42709 -3.70938",
				"geo:lat":"40.42709",
				"geo:long":"-3.70938"
			},
			{
				"title":"CALLE DE ALBERTO AGUILERA N.21",
				"georss:point":"40.42989 -3.71047",
				"geo:lat":"40.42989",
				"geo:long":"-3.71047"
			},
			{
				"title":"CALLE DE CARRANZA N.25",
				"georss:point":"40.4293 -3.70487",
				"geo:lat":"40.4293",
				"geo:long":"-3.70487"
			},
			{
				"title":"CALLE DE CARRANZA N.5",
				"georss:point":"40.42899 -3.70298",
				"geo:lat":"40.42899",
				"geo:long":"-3.70298"
			},
			{
				"title":"CALLE DE EL ESCORIAL N.28",
				"georss:point":"40.42435 -3.70427",
				"geo:lat":"40.42435",
				"geo:long":"-3.70427"
			},
			{
				"title":"CALLE DE FUENCARRAL N.27",
				"georss:point":"40.42189 -3.701",
				"geo:lat":"40.42189",
				"geo:long":"-3.701"
			},
			{
				"title":"CALLE DE FUENCARRAL N.36",
				"georss:point":"40.42259 -3.7008",
				"geo:lat":"40.42259",
				"geo:long":"-3.7008"
			},
			{
				"title":"CALLE DE FUENCARRAL N.75",
				"georss:point":"40.42504 -3.70084",
				"geo:lat":"40.42504",
				"geo:long":"-3.70084"
			},
			{
				"title":"CALLE DE LA CORREDERA ALTA DE SAN PABLO N.20",
				"georss:point":"40.42548 -3.70185",
				"geo:lat":"40.42548",
				"geo:long":"-3.70185"
			},
			{
				"title":"CALLE DE LA CORREDERA BAJA DE SAN PABLO N.1",
				"georss:point":"40.42158 -3.70495",
				"geo:lat":"40.42158",
				"geo:long":"-3.70495"
			},
			{
				"title":"CALLE DE LA LUNA N.1",
				"georss:point":"40.42188 -3.70554",
				"geo:lat":"40.42188",
				"geo:long":"-3.70554"
			},
			{
				"title":"CALLE DE LA LUNA N.2",
				"georss:point":"40.42122 -3.7049",
				"geo:lat":"40.42122",
				"geo:long":"-3.7049"
			},
			{
				"title":"CALLE DE LA PALMA N.30",
				"georss:point":"40.42637 -3.70418",
				"geo:lat":"40.42637",
				"geo:long":"-3.70418"
			},
			{
				"title":"CALLE DE LA PRINCESA N.16",
				"georss:point":"40.42598 -3.71275",
				"geo:lat":"40.42598",
				"geo:long":"-3.71275"
			},
			{
				"title":"CALLE DE LA PRINCESA N.24",
				"georss:point":"40.42733 -3.71374",
				"geo:lat":"40.42733",
				"geo:long":"-3.71374"
			},
			{
				"title":"CALLE DE LA PRINCESA N.56",
				"georss:point":"40.43042 -3.71597",
				"geo:lat":"40.43042",
				"geo:long":"-3.71597"
			},
			{
				"title":"CALLE DE LAS POZAS N.10",
				"georss:point":"40.42489 -3.70658",
				"geo:lat":"40.42489",
				"geo:long":"-3.70658"
			},
			{
				"title":"CALLE DE AMANIEL N.9",
				"georss:point":"40.42562 -3.70932",
				"geo:lat":"40.42562",
				"geo:long":"-3.70932"
			},
			{
				"title":"CALLE DE CARRANZA N.11",
				"georss:point":"40.42913 -3.70378",
				"geo:lat":"40.42913",
				"geo:long":"-3.70378"
			},
			{
				"title":"CALLE DE SAN ANDRES N.18",
				"georss:point":"40.42693 -3.70378",
				"geo:lat":"40.42693",
				"geo:long":"-3.70378"
			},
			{
				"title":"CALLE DE SAN BERNARDO N.10",
				"georss:point":"40.4221 -3.70766",
				"geo:lat":"40.4221",
				"geo:long":"-3.70766"
			},
			{
				"title":"CALLE DE SAN BERNARDO N.58",
				"georss:point":"40.42544 -3.70728",
				"geo:lat":"40.42544",
				"geo:long":"-3.70728"
			},
			{
				"title":"CALLE DE SAN BERNARDO N.59",
				"georss:point":"40.42617 -3.70692",
				"geo:lat":"40.42617",
				"geo:long":"-3.70692"
			},
			{
				"title":"CALLE DE SAN BERNARDO N.74",
				"georss:point":"40.42798 -3.70614",
				"geo:lat":"40.42798",
				"geo:long":"-3.70614"
			},
			{
				"title":"CALLE DE QUIÑONES N.1",
				"georss:point":"40.42755 -3.70645",
				"geo:lat":"40.42755",
				"geo:long":"-3.70645"
			},
			{
				"title":"CALLE DE SAN BERNARDO N.88",
				"georss:point":"40.42884 -3.70594",
				"geo:lat":"40.42884",
				"geo:long":"-3.70594"
			},
			{
				"title":"CALLE DE SAN BERNARDO N.91",
				"georss:point":"40.42896 -3.70615",
				"geo:lat":"40.42896",
				"geo:long":"-3.70615"
			},
			{
				"title":"COSTANILLA DE SAN VICENTE N.1",
				"georss:point":"40.42598 -3.70585",
				"geo:lat":"40.42598",
				"geo:long":"-3.70585"
			},
			{
				"title":"CALLE DE SAN VICENTE FERRER N.92",
				"georss:point":"40.4263 -3.70923",
				"geo:lat":"40.4263",
				"geo:long":"-3.70923"
			},
			{
				"title":"CALLE DEL ACUERDO N.34",
				"georss:point":"40.42879 -3.70766",
				"geo:lat":"40.42879",
				"geo:long":"-3.70766"
			},
			{
				"title":"CALLE DE SERRANO JOVER N.4",
				"georss:point":"40.42981 -3.7142",
				"geo:lat":"40.42981",
				"geo:long":"-3.7142"
			},
			{
				"title":"CALLE DE LA PRINCESA N.38",
				"georss:point":"40.42915 -3.71501",
				"geo:lat":"40.42915",
				"geo:long":"-3.71501"
			},
			{
				"title":"CALLE DE SERRANO JOVER N.5",
				"georss:point":"40.43028 -3.71415",
				"geo:lat":"40.43028",
				"geo:long":"-3.71415"
			},
			{
				"title":"CALLE DE SILVA N.10",
				"georss:point":"40.42106 -3.70665",
				"geo:lat":"40.42106",
				"geo:long":"-3.70665"
			},
			{
				"title":"CALLE DE VALVERDE N.24",
				"georss:point":"40.42203 -3.70172",
				"geo:lat":"40.42203",
				"geo:long":"-3.70172"
			},
			{
				"title":"CALLE DE VELARDE N.13",
				"georss:point":"40.42687 -3.70324",
				"geo:lat":"40.42687",
				"geo:long":"-3.70324"
			},
			{
				"title":"CALLE DEL BARCO N.31",
				"georss:point":"40.4226 -3.70252",
				"geo:lat":"40.4226",
				"geo:long":"-3.70252"
			},
			{
				"title":"CALLE DEL CONDE DUQUE N.7",
				"georss:point":"40.426321 -3.711372",
				"geo:lat":"40.426321",
				"geo:long":"-3.711372"
			},
			{
				"title":"CALLE DEL CONDE DUQUE N.11",
				"georss:point":"40.42855 -3.70983",
				"geo:lat":"40.42855",
				"geo:long":"-3.70983"
			},
			{
				"title":"CALLE DEL CONDE DUQUE N.44",
				"georss:point":"40.42916 -3.70921",
				"geo:lat":"40.42916",
				"geo:long":"-3.70921"
			},
			{
				"title":"CALLE DEL DESENGAÑO N.5",
				"georss:point":"40.42067 -3.70286",
				"geo:lat":"40.42067",
				"geo:long":"-3.70286"
			},
			{
				"title":"CALLE DEL DESENGAÑO N.9",
				"georss:point":"40.42092 -3.70352",
				"geo:lat":"40.42092",
				"geo:long":"-3.70352"
			},
			{
				"title":"CALLE DEL DIVINO PASTOR N.1",
				"georss:point":"40.42728 -3.70178",
				"geo:lat":"40.42728",
				"geo:long":"-3.70178"
			},
			{
				"title":"CALLE DEL DIVINO PASTOR N.6",
				"georss:point":"40.42759 -3.70345",
				"geo:lat":"40.42759",
				"geo:long":"-3.70345"
			},
			{
				"title":"CALLE DEL DUQUE DE LIRIA N.1",
				"georss:point":"40.42576 -3.71199",
				"geo:lat":"40.42576",
				"geo:long":"-3.71199"
			},
			{
				"title":"CALLE DEL ESPIRITU SANTO N.38",
				"georss:point":"40.42559 -3.70497",
				"geo:lat":"40.42559",
				"geo:long":"-3.70497"
			},
			{
				"title":"CALLE DEL MAESTRO GUERRERO N.2",
				"georss:point":"40.42395 -3.71029",
				"geo:lat":"40.42395",
				"geo:long":"-3.71029"
			},
			{
				"title":"CALLE DE LOS DOS AMIGOS N.9",
				"georss:point":"40.42447 -3.71074",
				"geo:lat":"40.42447",
				"geo:long":"-3.71074"
			},
			{
				"title":"CALLE DEL PEZ N.28",
				"georss:point":"40.42398 -3.70579",
				"geo:lat":"40.42398",
				"geo:long":"-3.70579"
			},
			{
				"title":"CALLE DEL ESPIRITU SANTO N.24",
				"georss:point":"40.42534 -3.70373",
				"geo:lat":"40.42534",
				"geo:long":"-3.70373"
			},
			{
				"title":"CALLE DEL PEZ N.38",
				"georss:point":"40.42434 -3.70682",
				"geo:lat":"40.42434",
				"geo:long":"-3.70682"
			},
			{
				"title":"CALLE DEL SEMINARIO DE NOBLES N.4",
				"georss:point":"40.42816 -3.71365",
				"geo:lat":"40.42816",
				"geo:long":"-3.71365"
			},
			{
				"title":"CALLE DEL TESORO N.22",
				"georss:point":"40.42503 -3.70581",
				"geo:lat":"40.42503",
				"geo:long":"-3.70581"
			},
			{
				"title":"CALLE  GRAN VIA N.76",
				"georss:point":"40.42312 -3.71007",
				"geo:lat":"40.42312",
				"geo:long":"-3.71007"
			},
			{
				"title":"PLAZA DE CARLOS CAMBRONERO N.2",
				"georss:point":"40.42317 -3.70402",
				"geo:lat":"40.42317",
				"geo:long":"-3.70402"
			},
			{
				"title":"CALLE DEL CONDE DUQUE N.22",
				"georss:point":"40.42718 -3.71044",
				"geo:lat":"40.42718",
				"geo:long":"-3.71044"
			},
			{
				"title":"PLAZA DE SAN ILDEFONSO N.4",
				"georss:point":"40.42416 -3.70207",
				"geo:lat":"40.42416",
				"geo:long":"-3.70207"
			},
			{
				"title":"PLAZA DEL CONDE DE TORENO N.1",
				"georss:point":"40.42436 -3.7092",
				"geo:lat":"40.42436",
				"geo:long":"-3.7092"
			},
			{
				"title":"PLAZA DEL DOS DE MAYO N.3",
				"georss:point":"40.42707 -3.7044",
				"geo:lat":"40.42707",
				"geo:long":"-3.7044"
			},
			{
				"title":"CALLE DE LA MONTERA N.2",
				"georss:point":"40.41726 -3.70297",
				"geo:lat":"40.41726",
				"geo:long":"-3.70297"
			},
			{
				"title":"CALLE DE LA MONTERA N.46",
				"georss:point":"40.41965 -3.70169",
				"geo:lat":"40.41965",
				"geo:long":"-3.70169"
			},
			{
				"title":"CALLE DE LA SALUD N.11",
				"georss:point":"40.41909 -3.70337",
				"geo:lat":"40.41909",
				"geo:long":"-3.70337"
			},
			{
				"title":"CALLE DE LA SALUD N.12",
				"georss:point":"40.41987 -3.70299",
				"geo:lat":"40.41987",
				"geo:long":"-3.70299"
			},
			{
				"title":"CALLE DE LAS POSTAS N.17",
				"georss:point":"40.41562 -3.70628",
				"geo:lat":"40.41562",
				"geo:long":"-3.70628"
			},
			{
				"title":"CALLE DE PRECIADOS N.46",
				"georss:point":"40.41975 -3.70771",
				"geo:lat":"40.41975",
				"geo:long":"-3.70771"
			},
			{
				"title":"CALLE DE LOS CUCHILLEROS N.5",
				"georss:point":"40.41469 -3.70804",
				"geo:lat":"40.41469",
				"geo:long":"-3.70804"
			},
			{
				"title":"CALLE DE LA ABADA N.9",
				"georss:point":"40.41954 -3.70446",
				"geo:lat":"40.41954",
				"geo:long":"-3.70446"
			},
			{
				"title":"CALLE DE LA CONCEPCION JERONIMA N.14",
				"georss:point":"40.41402 -3.70553",
				"geo:lat":"40.41402",
				"geo:long":"-3.70553"
			},
			{
				"title":"CALLE DEL CABALLERO DE GRACIA N.24",
				"georss:point":"40.41927 -3.69985",
				"geo:lat":"40.41927",
				"geo:long":"-3.69985"
			},
			{
				"title":"CALLE DEL MARQUES VIUDO DE PONTEJOS N.1",
				"georss:point":"40.41575 -3.70441",
				"geo:lat":"40.41575",
				"geo:long":"-3.70441"
			},
			{
				"title":"CALLE DE PRECIADOS N.25",
				"georss:point":"40.41957 -3.70584",
				"geo:lat":"40.41957",
				"geo:long":"-3.70584"
			},
			{
				"title":"CALLE  MAYOR N.36",
				"georss:point":"40.41615 -3.70812",
				"geo:lat":"40.41615",
				"geo:long":"-3.70812"
			},
			{
				"title":"PLAZA DEL CALLAO N.3",
				"georss:point":"40.42016 -3.70571",
				"geo:lat":"40.42016",
				"geo:long":"-3.70571"
			},
			{
				"title":"PLAZA DE CANALEJAS N.6",
				"georss:point":"40.41656 -3.7006",
				"geo:lat":"40.41656",
				"geo:long":"-3.7006"
			},
			{
				"title":"PLAZA DE LAS DESCALZAS N.1",
				"georss:point":"40.41804 -3.70602",
				"geo:lat":"40.41804",
				"geo:long":"-3.70602"
			},
			{
				"title":"CALLE DE ATOCHA N.1",
				"georss:point":"40.41489 -3.70547",
				"geo:lat":"40.41489",
				"geo:long":"-3.70547"
			},
			{
				"title":"PLAZA DEL CARMEN N.10",
				"georss:point":"40.41863 -3.70316",
				"geo:lat":"40.41863",
				"geo:long":"-3.70316"
			},
			{
				"title":"CALLE DEL ARENAL N.14",
				"georss:point":"40.41723 -3.70607",
				"geo:lat":"40.41723",
				"geo:long":"-3.70607"
			},
			{
				"title":"TRAVESIA DE BRINGAS N.1",
				"georss:point":"40.41577 -3.7087",
				"geo:lat":"40.41577",
				"geo:long":"-3.7087"
			},
			{
				"title":"CALLE DE BERCIAL N.7",
				"georss:point":"40.4066 -3.72018",
				"geo:lat":"40.4066",
				"geo:long":"-3.72018"
			},
			{
				"title":"CALLE DE COBOS DE SEGOVIA N.9",
				"georss:point":"40.40498 -3.71884",
				"geo:lat":"40.40498",
				"geo:long":"-3.71884"
			},
			{
				"title":"CALLE DE COBOS DE SEGOVIA N.14",
				"georss:point":"40.40597 -3.7193",
				"geo:lat":"40.40597",
				"geo:long":"-3.7193"
			},
			{
				"title":"CALLE DE JEMENUÑO N.2",
				"georss:point":"40.40844 -3.71918",
				"geo:lat":"40.40844",
				"geo:long":"-3.71918"
			},
			{
				"title":"CALLE DE JUAN DUQUE N.26",
				"georss:point":"40.41166 -3.71943",
				"geo:lat":"40.41166",
				"geo:long":"-3.71943"
			},
			{
				"title":"CALLE DE LINNEO N.35",
				"georss:point":"40.40968 -3.72055",
				"geo:lat":"40.40968",
				"geo:long":"-3.72055"
			},
			{
				"title":"CALLE DE MORENO NIETO N.20",
				"georss:point":"40.41212 -3.72114",
				"geo:lat":"40.41212",
				"geo:long":"-3.72114"
			},
			{
				"title":"CALLE DE PARADINAS N.23",
				"georss:point":"40.40424 -3.71931",
				"geo:lat":"40.40424",
				"geo:long":"-3.71931"
			},
			{
				"title":"CALLE DE SAN EPIFANIO N.7",
				"georss:point":"40.40168 -3.71886",
				"geo:lat":"40.40168",
				"geo:long":"-3.71886"
			},
			{
				"title":"CALLE DE SEGOVIA N.63",
				"georss:point":"40.41384 -3.71909",
				"geo:lat":"40.41384",
				"geo:long":"-3.71909"
			},
			{
				"title":"CALLE DE TOLEDO N.134",
				"georss:point":"40.40467 -3.71285",
				"geo:lat":"40.40467",
				"geo:long":"-3.71285"
			},
			{
				"title":"CALLE DE TOLEDO N.178",
				"georss:point":"40.40198 -3.71413",
				"geo:lat":"40.40198",
				"geo:long":"-3.71413"
			},
			{
				"title":"CALLE DE VILLOSLADA N.1",
				"georss:point":"40.4071 -3.71624",
				"geo:lat":"40.4071",
				"geo:long":"-3.71624"
			},
			{
				"title":"CALLE DE VILLOSLADA N.20",
				"georss:point":"40.40615 -3.71586",
				"geo:lat":"40.40615",
				"geo:long":"-3.71586"
			},
			{
				"title":"GLORIETA DE LA PUERTA DE TOLEDO N.4",
				"georss:point":"40.40647 -3.71233",
				"geo:lat":"40.40647",
				"geo:long":"-3.71233"
			},
			{
				"title":"CALLE DE ALEJANDRO DUMAS N.2",
				"georss:point":"40.40034 -3.71468",
				"geo:lat":"40.40034",
				"geo:long":"-3.71468"
			},
			{
				"title":"CALLE DE SEGOVIA N.81",
				"georss:point":"40.41385 -3.72186",
				"geo:lat":"40.41385",
				"geo:long":"-3.72186"
			},
			{
				"title":"PASEO DE JUAN ANTONIO VALLEJO-NAJERA BOTAS N.55",
				"georss:point":"40.40371 -3.71477",
				"geo:lat":"40.40371",
				"geo:long":"-3.71477"
			},
			{
				"title":"PARQUE  MADRID RIO K.300",
				"georss:point":"40.41058 -3.72198",
				"geo:lat":"40.41058",
				"geo:long":"-3.72198"
			},
			{
				"title":"PARQUE  MADRID RIO K.320",
				"georss:point":"40.4096 -3.72133",
				"geo:lat":"40.4096",
				"geo:long":"-3.72133"
			},
			{
				"title":"PASEO DE LA VIRGEN DEL PUERTO N.51",
				"georss:point":"40.40833 -3.72131",
				"geo:lat":"40.40833",
				"geo:long":"-3.72131"
			},
			{
				"title":"PASEO DE LA VIRGEN DEL PUERTO N.57",
				"georss:point":"40.40633 -3.72207",
				"geo:lat":"40.40633",
				"geo:long":"-3.72207"
			},
			{
				"title":"PASEO DE LA VIRGEN DEL PUERTO N.59",
				"georss:point":"40.40542 -3.7222",
				"geo:lat":"40.40542",
				"geo:long":"-3.7222"
			},
			{
				"title":"PASEO DE LA VIRGEN DEL PUERTO N.65",
				"georss:point":"40.4047 -3.72214",
				"geo:lat":"40.4047",
				"geo:long":"-3.72214"
			},
			{
				"title":"PASEO DE LOS MELANCOLICOS N.28",
				"georss:point":"40.40319 -3.72042",
				"geo:lat":"40.40319",
				"geo:long":"-3.72042"
			},
			{
				"title":"PASEO DE LOS MELANCOLICOS N.4",
				"georss:point":"40.4098 -3.71881",
				"geo:lat":"40.4098",
				"geo:long":"-3.71881"
			},
			{
				"title":"PASEO  IMPERIAL N.26",
				"georss:point":"40.40516 -3.7174",
				"geo:lat":"40.40516",
				"geo:long":"-3.7174"
			},
			{
				"title":"PASEO DE LOS PONTONES N.8",
				"georss:point":"40.4054 -3.71468",
				"geo:lat":"40.4054",
				"geo:long":"-3.71468"
			},
			{
				"title":"PASEO  IMPERIAL N.35",
				"georss:point":"40.40725 -3.71704",
				"geo:lat":"40.40725",
				"geo:long":"-3.71704"
			},
			{
				"title":"PASEO  IMPERIAL N.19",
				"georss:point":"40.408593 -3.71738",
				"geo:lat":"40.408593",
				"geo:long":"-3.71738"
			},
			{
				"title":"PASEO  IMPERIAL N.2",
				"georss:point":"40.41056 -3.7183",
				"geo:lat":"40.41056",
				"geo:long":"-3.7183"
			},
			{
				"title":"PASEO  IMPERIAL N.89",
				"georss:point":"40.40229 -3.71511",
				"geo:lat":"40.40229",
				"geo:long":"-3.71511"
			},
			{
				"title":"RONDA DE SEGOVIA N.16",
				"georss:point":"40.40868 -3.7169",
				"geo:lat":"40.40868",
				"geo:long":"-3.7169"
			},
			{
				"title":"RONDA DE SEGOVIA N.2",
				"georss:point":"40.41235 -3.71776",
				"geo:lat":"40.41235",
				"geo:long":"-3.71776"
			},
			{
				"title":"RONDA DE SEGOVIA N.48",
				"georss:point":"40.40718 -3.7135",
				"geo:lat":"40.40718",
				"geo:long":"-3.7135"
			},
			{
				"title":"TRAVESIA DE GIL IMON N.11",
				"georss:point":"40.40705 -3.71414",
				"geo:lat":"40.40705",
				"geo:long":"-3.71414"
			},
			{
				"title":"CALLE DE ARGANDA N.40",
				"georss:point":"40.39984 -3.70569",
				"geo:lat":"40.39984",
				"geo:long":"-3.70569"
			},
			{
				"title":"CALLE DE EMBAJADORES N.100",
				"georss:point":"40.40243 -3.70072",
				"geo:lat":"40.40243",
				"geo:long":"-3.70072"
			},
			{
				"title":"PASEO DE JUAN ANTONIO VALLEJO-NAJERA BOTAS N.3",
				"georss:point":"40.40099 -3.70127",
				"geo:lat":"40.40099",
				"geo:long":"-3.70127"
			},
			{
				"title":"CALLE DE GARGANTILLA N.2",
				"georss:point":"40.399 -3.70382",
				"geo:lat":"40.399",
				"geo:long":"-3.70382"
			},
			{
				"title":"CALLE DE LA RIBERA DE CURTIDORES N.43",
				"georss:point":"40.40493 -3.70677",
				"geo:lat":"40.40493",
				"geo:long":"-3.70677"
			},
			{
				"title":"CALLE DE LAS NAVES N.2",
				"georss:point":"40.3974 -3.707",
				"geo:lat":"40.3974",
				"geo:long":"-3.707"
			},
			{
				"title":"CALLE DE LAS NAVES N.30",
				"georss:point":"40.39834 -3.70517",
				"geo:lat":"40.39834",
				"geo:long":"-3.70517"
			},
			{
				"title":"CALLE DE ARGANDA N.5",
				"georss:point":"40.4012 -3.70799",
				"geo:lat":"40.4012",
				"geo:long":"-3.70799"
			},
			{
				"title":"CALLE DE MELILLA N.31",
				"georss:point":"40.40072 -3.70864",
				"geo:lat":"40.40072",
				"geo:long":"-3.70864"
			},
			{
				"title":"CALLE DE MELILLA N.65",
				"georss:point":"40.40031 -3.71056",
				"geo:lat":"40.40031",
				"geo:long":"-3.71056"
			},
			{
				"title":"CALLE DE MELILLA N.9",
				"georss:point":"40.40162 -3.70952",
				"geo:lat":"40.40162",
				"geo:long":"-3.70952"
			},
			{
				"title":"CALLE DE ERCILLA N.15",
				"georss:point":"40.40294 -3.70301",
				"geo:lat":"40.40294",
				"geo:long":"-3.70301"
			},
			{
				"title":"CALLE DE MORATINES N.27",
				"georss:point":"40.40161 -3.70476",
				"geo:lat":"40.40161",
				"geo:long":"-3.70476"
			},
			{
				"title":"CALLE DE TOLEDO N.139",
				"georss:point":"40.40484 -3.71228",
				"geo:lat":"40.40484",
				"geo:long":"-3.71228"
			},
			{
				"title":"CALLE DEL GASOMETRO N.1",
				"georss:point":"40.40574 -3.70848",
				"geo:lat":"40.40574",
				"geo:long":"-3.70848"
			},
			{
				"title":"CALLE DEL LABRADOR N.18",
				"georss:point":"40.40135 -3.70241",
				"geo:lat":"40.40135",
				"geo:long":"-3.70241"
			},
			{
				"title":"CALLE DEL LAUREL N.27",
				"georss:point":"40.40219 -3.70418",
				"geo:lat":"40.40219",
				"geo:long":"-3.70418"
			},
			{
				"title":"CALLE DE EMBAJADORES N.72",
				"georss:point":"40.40448 -3.70234",
				"geo:lat":"40.40448",
				"geo:long":"-3.70234"
			},
			{
				"title":"PASEO DE LOS OLMOS N.1",
				"georss:point":"40.40624 -3.71139",
				"geo:lat":"40.40624",
				"geo:long":"-3.71139"
			},
			{
				"title":"GLORIETA DE SANTA MARIA DE LA CABEZA N.13",
				"georss:point":"40.40093 -3.70036",
				"geo:lat":"40.40093",
				"geo:long":"-3.70036"
			},
			{
				"title":"GLORIETA DE SANTA MARIA DE LA CABEZA N.14",
				"georss:point":"40.40114 -3.69966",
				"geo:lat":"40.40114",
				"geo:long":"-3.69966"
			},
			{
				"title":"PASEO DE JUAN ANTONIO VALLEJO-NAJERA BOTAS N.11",
				"georss:point":"40.40115 -3.70364",
				"geo:lat":"40.40115",
				"geo:long":"-3.70364"
			},
			{
				"title":"PASEO DE JUAN ANTONIO VALLEJO-NAJERA BOTAS N.17",
				"georss:point":"40.40135 -3.70586",
				"geo:lat":"40.40135",
				"geo:long":"-3.70586"
			},
			{
				"title":"PASEO DE JUAN ANTONIO VALLEJO-NAJERA BOTAS N.25",
				"georss:point":"40.402 -3.70782",
				"geo:lat":"40.402",
				"geo:long":"-3.70782"
			},
			{
				"title":"PASEO DE JUAN ANTONIO VALLEJO-NAJERA BOTAS N.25",
				"georss:point":"40.4021 -3.70882",
				"geo:lat":"40.4021",
				"geo:long":"-3.70882"
			},
			{
				"title":"PASEO DE JUAN ANTONIO VALLEJO-NAJERA BOTAS N.45",
				"georss:point":"40.40303 -3.71249",
				"geo:lat":"40.40303",
				"geo:long":"-3.71249"
			},
			{
				"title":"PASEO DE JUAN ANTONIO VALLEJO-NAJERA BOTAS N.15",
				"georss:point":"40.40116 -3.705",
				"geo:lat":"40.40116",
				"geo:long":"-3.705"
			},
			{
				"title":"PASEO DE LA ESPERANZA N.39",
				"georss:point":"40.39949 -3.7036",
				"geo:lat":"40.39949",
				"geo:long":"-3.7036"
			},
			{
				"title":"PASEO DE LA ESPERANZA N.8",
				"georss:point":"40.40285 -3.70598",
				"geo:lat":"40.40285",
				"geo:long":"-3.70598"
			},
			{
				"title":"PASEO DE LAS ACACIAS N.1",
				"georss:point":"40.40486 -3.70359",
				"geo:lat":"40.40486",
				"geo:long":"-3.70359"
			},
			{
				"title":"PASEO DE LAS ACACIAS N.19",
				"georss:point":"40.40411 -3.70544",
				"geo:lat":"40.40411",
				"geo:long":"-3.70544"
			},
			{
				"title":"PASEO DE LAS ACACIAS N.31",
				"georss:point":"40.40331 -3.70837",
				"geo:lat":"40.40331",
				"geo:long":"-3.70837"
			},
			{
				"title":"PASEO DE LAS YESERIAS N.10",
				"georss:point":"40.39703 -3.70484",
				"geo:lat":"40.39703",
				"geo:long":"-3.70484"
			},
			{
				"title":"PASEO DE LAS YESERIAS N.13",
				"georss:point":"40.39957 -3.71114",
				"geo:lat":"40.39957",
				"geo:long":"-3.71114"
			},
			{
				"title":"PASEO DE LAS YESERIAS N.19",
				"georss:point":"40.39909 -3.71027",
				"geo:lat":"40.39909",
				"geo:long":"-3.71027"
			},
			{
				"title":"PASEO DE LAS YESERIAS N.6",
				"georss:point":"40.398 -3.70818",
				"geo:lat":"40.398",
				"geo:long":"-3.70818"
			},
			{
				"title":"PASEO DE LOS OLMOS N.18",
				"georss:point":"40.40445 -3.71102",
				"geo:lat":"40.40445",
				"geo:long":"-3.71102"
			},
			{
				"title":"PASEO DE SANTA MARIA DE LA CABEZA N.76",
				"georss:point":"40.39904 -3.70126",
				"geo:lat":"40.39904",
				"geo:long":"-3.70126"
			},
			{
				"title":"PLAZA DE LAS PEÑUELAS N.10",
				"georss:point":"40.40044 -3.7031",
				"geo:lat":"40.40044",
				"geo:long":"-3.7031"
			},
			{
				"title":"PLAZA DE LAS PEÑUELAS N.7",
				"georss:point":"40.40077 -3.70255",
				"geo:lat":"40.40077",
				"geo:long":"-3.70255"
			},
			{
				"title":"TRAVESIA DE SAN ISIDORO DE SEVILLA N.15",
				"georss:point":"40.40291 -3.71103",
				"geo:lat":"40.40291",
				"geo:long":"-3.71103"
			},
			{
				"title":"RONDA DE TOLEDO N.30",
				"georss:point":"40.40536 -3.70533",
				"geo:lat":"40.40536",
				"geo:long":"-3.70533"
			},
			{
				"title":"CALLE DE AGUILON N.15",
				"georss:point":"40.39737 -3.70049",
				"geo:lat":"40.39737",
				"geo:long":"-3.70049"
			},
			{
				"title":"CALLE DE GUILLERMO DE OSMA N.11",
				"georss:point":"40.39405 -3.69642",
				"geo:lat":"40.39405",
				"geo:long":"-3.69642"
			},
			{
				"title":"CALLE DE GUILLERMO DE OSMA N.18",
				"georss:point":"40.39383 -3.69781",
				"geo:lat":"40.39383",
				"geo:long":"-3.69781"
			},
			{
				"title":"CALLE DE JAIME EL CONQUISTADOR N.12",
				"georss:point":"40.39737 -3.69819",
				"geo:lat":"40.39737",
				"geo:long":"-3.69819"
			},
			{
				"title":"CALLE DE ALDEA DEL FRESNO N.18",
				"georss:point":"40.39571 -3.69814",
				"geo:lat":"40.39571",
				"geo:long":"-3.69814"
			},
			{
				"title":"CALLE DE JAIME EL CONQUISTADOR N.48",
				"georss:point":"40.39478 -3.69855",
				"geo:lat":"40.39478",
				"geo:long":"-3.69855"
			},
			{
				"title":"CALLE DE TORRES MIRANDA N.12",
				"georss:point":"40.39804 -3.69949",
				"geo:lat":"40.39804",
				"geo:long":"-3.69949"
			},
			{
				"title":"GLORIETA DE SANTA MARIA DE LA CABEZA N.8",
				"georss:point":"40.40054 -3.69927",
				"geo:lat":"40.40054",
				"geo:long":"-3.69927"
			},
			{
				"title":"PASEO DE LA CHOPERA N.10",
				"georss:point":"40.39338 -3.69839",
				"geo:lat":"40.39338",
				"geo:long":"-3.69839"
			},
			{
				"title":"PASEO DE LA CHOPERA N.29",
				"georss:point":"40.39539 -3.70057",
				"geo:lat":"40.39539",
				"geo:long":"-3.70057"
			},
			{
				"title":"PASEO DE LA CHOPERA N.4",
				"georss:point":"40.39563 -3.70151",
				"geo:lat":"40.39563",
				"geo:long":"-3.70151"
			},
			{
				"title":"PASEO DE LA CHOPERA N.8",
				"georss:point":"40.3945 -3.70001",
				"geo:lat":"40.3945",
				"geo:long":"-3.70001"
			},
			{
				"title":"PASEO DE LAS DELICIAS N.136",
				"georss:point":"40.39285 -3.69503",
				"geo:lat":"40.39285",
				"geo:long":"-3.69503"
			},
			{
				"title":"PASEO DE SANTA MARIA DE LA CABEZA N.77",
				"georss:point":"40.39852 -3.70133",
				"geo:lat":"40.39852",
				"geo:long":"-3.70133"
			},
			{
				"title":"PARQUE  MADRID RIO K.650",
				"georss:point":"40.38976 -3.69753",
				"geo:lat":"40.38976",
				"geo:long":"-3.69753"
			},
			{
				"title":"AVENIDA DEL PLANETARIO N.13",
				"georss:point":"40.39305 -3.68234",
				"geo:lat":"40.39305",
				"geo:long":"-3.68234"
			},
			{
				"title":"CALLE DE ARIEL N.4",
				"georss:point":"40.39312 -3.67972",
				"geo:lat":"40.39312",
				"geo:long":"-3.67972"
			},
			{
				"title":"CALLE DE BOLIVAR N.18",
				"georss:point":"40.39159 -3.69223",
				"geo:lat":"40.39159",
				"geo:long":"-3.69223"
			},
			{
				"title":"CALLE DE BOLIVAR N.24",
				"georss:point":"40.39133 -3.69089",
				"geo:lat":"40.39133",
				"geo:long":"-3.69089"
			},
			{
				"title":"CALLE DE EMBAJADORES N.316",
				"georss:point":"40.38487 -3.69063",
				"geo:lat":"40.38487",
				"geo:long":"-3.69063"
			},
			{
				"title":"CALLE DE EMBAJADORES N.316",
				"georss:point":"40.3849 -3.68835",
				"geo:lat":"40.3849",
				"geo:long":"-3.68835"
			},
			{
				"title":"CALLE DE EROS N.24",
				"georss:point":"40.39231 -3.67872",
				"geo:lat":"40.39231",
				"geo:long":"-3.67872"
			},
			{
				"title":"CALLE DE JOSE ANTONIO ZAPATA N.14",
				"georss:point":"40.38568 -3.69202",
				"geo:lat":"40.38568",
				"geo:long":"-3.69202"
			},
			{
				"title":"CALLE DE JULIAN RABANEDO N.19",
				"georss:point":"40.38741 -3.69394",
				"geo:lat":"40.38741",
				"geo:long":"-3.69394"
			},
			{
				"title":"CALLE DE LA ANTRACITA N.31",
				"georss:point":"40.39154 -3.68686",
				"geo:lat":"40.39154",
				"geo:long":"-3.68686"
			},
			{
				"title":"CALLE DE MENESES N.6",
				"georss:point":"40.39133 -3.68101",
				"geo:lat":"40.39133",
				"geo:long":"-3.68101"
			},
			{
				"title":"CALLE DE TITAN N.8",
				"georss:point":"40.39152 -3.67854",
				"geo:lat":"40.39152",
				"geo:long":"-3.67854"
			},
			{
				"title":"CALLE DE EMBAJADORES N.242",
				"georss:point":"40.38781 -3.69112",
				"geo:lat":"40.38781",
				"geo:long":"-3.69112"
			},
			{
				"title":"CALLE DEL BRONCE N.9",
				"georss:point":"40.38998 -3.68767",
				"geo:lat":"40.38998",
				"geo:long":"-3.68767"
			},
			{
				"title":"CALLE DEL BRONCE N.22",
				"georss:point":"40.38856 -3.68957",
				"geo:lat":"40.38856",
				"geo:long":"-3.68957"
			},
			{
				"title":"CALLE DEL HIERRO N.33",
				"georss:point":"40.38919 -3.68967",
				"geo:lat":"40.38919",
				"geo:long":"-3.68967"
			},
			{
				"title":"CALLE DE LA ANTRACITA N.10",
				"georss:point":"40.39002 -3.69036",
				"geo:lat":"40.39002",
				"geo:long":"-3.69036"
			},
			{
				"title":"CALLE DEL MAESTRO ARBOS N.29",
				"georss:point":"40.38779 -3.69554",
				"geo:lat":"40.38779",
				"geo:long":"-3.69554"
			},
			{
				"title":"CALLE DEL PLOMO N.5",
				"georss:point":"40.39168 -3.68951",
				"geo:lat":"40.39168",
				"geo:long":"-3.68951"
			},
			{
				"title":"CALLE DEL PUERTO DE BEJAR N.42",
				"georss:point":"40.38676 -3.68623",
				"geo:lat":"40.38676",
				"geo:long":"-3.68623"
			},
			{
				"title":"CALLE DEL PUERTO DE BEJAR N.7",
				"georss:point":"40.38835 -3.68659",
				"geo:lat":"40.38835",
				"geo:long":"-3.68659"
			},
			{
				"title":"CALLE DEL PUERTO DE BEJAR N.5",
				"georss:point":"40.38794 -3.68764",
				"geo:lat":"40.38794",
				"geo:long":"-3.68764"
			},
			{
				"title":"CALLE DEL PUERTO DE LA CRUZ VERDE N.49",
				"georss:point":"40.38607 -3.68565",
				"geo:lat":"40.38607",
				"geo:long":"-3.68565"
			},
			{
				"title":"CALLE DEL PUERTO DE LA CRUZ VERDE N.29",
				"georss:point":"40.38425 -3.68579",
				"geo:lat":"40.38425",
				"geo:long":"-3.68579"
			},
			{
				"title":"CALLE DEL PUERTO DE MIRAVETE N.13",
				"georss:point":"40.38598 -3.68739",
				"geo:lat":"40.38598",
				"geo:long":"-3.68739"
			},
			{
				"title":"CALLE DEL PUERTO DE LA CRUZ VERDE N.45",
				"georss:point":"40.38543 -3.68681",
				"geo:lat":"40.38543",
				"geo:long":"-3.68681"
			},
			{
				"title":"CALLE DE RICARDO GOIZUETA N.3",
				"georss:point":"40.38774 -3.69241",
				"geo:lat":"40.38774",
				"geo:long":"-3.69241"
			},
			{
				"title":"PASEO DEL MOLINO N.14",
				"georss:point":"40.3894 -3.69223",
				"geo:lat":"40.3894",
				"geo:long":"-3.69223"
			},
			{
				"title":"CALLE DE FRIGILIANA N.2",
				"georss:point":"40.39033 -3.69387",
				"geo:lat":"40.39033",
				"geo:long":"-3.69387"
			},
			{
				"title":"CALLE DE ALICANTE N.6",
				"georss:point":"40.3941 -3.69276",
				"geo:lat":"40.3941",
				"geo:long":"-3.69276"
			},
			{
				"title":"CALLE DE BUSTAMANTE N.7",
				"georss:point":"40.40073 -3.69277",
				"geo:lat":"40.40073",
				"geo:long":"-3.69277"
			},
			{
				"title":"CALLE DE LA BATALLA DEL SALADO N.57",
				"georss:point":"40.39711 -3.69659",
				"geo:lat":"40.39711",
				"geo:long":"-3.69659"
			},
			{
				"title":"CALLE DE EMBAJADORES N.151",
				"georss:point":"40.39617 -3.69592",
				"geo:lat":"40.39617",
				"geo:long":"-3.69592"
			},
			{
				"title":"CALLE DEL GRANITO N.2",
				"georss:point":"40.39296 -3.69295",
				"geo:lat":"40.39296",
				"geo:long":"-3.69295"
			},
			{
				"title":"CALLE DE JUAN DE MARIANA N.14",
				"georss:point":"40.39801 -3.68612",
				"geo:lat":"40.39801",
				"geo:long":"-3.68612"
			},
			{
				"title":"PLAZA DEL AMANECER EN MENDEZ ALVARO N.4",
				"georss:point":"40.39895 -3.68501",
				"geo:lat":"40.39895",
				"geo:long":"-3.68501"
			},
			{
				"title":"CALLE DE JUAN DE VERA N.8",
				"georss:point":"40.39618 -3.69276",
				"geo:lat":"40.39618",
				"geo:long":"-3.69276"
			},
			{
				"title":"CALLE DE CACERES N.16",
				"georss:point":"40.39876 -3.69632",
				"geo:lat":"40.39876",
				"geo:long":"-3.69632"
			},
			{
				"title":"CALLE DE LA CIRCONITA N.1",
				"georss:point":"40.3934 -3.69127",
				"geo:lat":"40.3934",
				"geo:long":"-3.69127"
			},
			{
				"title":"CALLE DE LA ESTRELLA DENEBOLA N.1",
				"georss:point":"40.39366 -3.68313",
				"geo:lat":"40.39366",
				"geo:long":"-3.68313"
			},
			{
				"title":"CALLE DE LAS NEBULOSAS N.11",
				"georss:point":"40.39575 -3.6861",
				"geo:lat":"40.39575",
				"geo:long":"-3.6861"
			},
			{
				"title":"CALLE DE MENDEZ ALVARO N.44",
				"georss:point":"40.39836 -3.68365",
				"geo:lat":"40.39836",
				"geo:long":"-3.68365"
			},
			{
				"title":"CALLE DE RAMIREZ DE PRADO N.2",
				"georss:point":"40.39935 -3.68965",
				"geo:lat":"40.39935",
				"geo:long":"-3.68965"
			},
			{
				"title":"CALLE DE JUAN DE MARIANA N.2",
				"georss:point":"40.39932 -3.687",
				"geo:lat":"40.39932",
				"geo:long":"-3.687"
			},
			{
				"title":"CALLE DE TOMAS BRETON N.47",
				"georss:point":"40.39849 -3.69258",
				"geo:lat":"40.39849",
				"geo:long":"-3.69258"
			},
			{
				"title":"CALLE DE VILLA DEL PRADO N.2",
				"georss:point":"40.4004 -3.68689",
				"geo:lat":"40.4004",
				"geo:long":"-3.68689"
			},
			{
				"title":"CALLE DEL COBRE N.4",
				"georss:point":"40.39404 -3.68953",
				"geo:lat":"40.39404",
				"geo:long":"-3.68953"
			},
			{
				"title":"CALLE DEL FERROCARRIL N.27",
				"georss:point":"40.40078 -3.69694",
				"geo:lat":"40.40078",
				"geo:long":"-3.69694"
			},
			{
				"title":"CALLE DEL FERROCARRIL N.9",
				"georss:point":"40.4007 -3.69514",
				"geo:lat":"40.4007",
				"geo:long":"-3.69514"
			},
			{
				"title":"CALLE DE RAMIREZ DE PRADO N.1",
				"georss:point":"40.39997 -3.6912",
				"geo:lat":"40.39997",
				"geo:long":"-3.6912"
			},
			{
				"title":"CALLE DEL ORIANA N.10",
				"georss:point":"40.39584 -3.68151",
				"geo:lat":"40.39584",
				"geo:long":"-3.68151"
			},
			{
				"title":"CALLE DEL ORIANA N.4",
				"georss:point":"40.396647 -3.683942",
				"geo:lat":"40.396647",
				"geo:long":"-3.683942"
			},
			{
				"title":"CALLE DEL PARROCO EUSEBIO CUENCA N.13",
				"georss:point":"40.39614 -3.68937",
				"geo:lat":"40.39614",
				"geo:long":"-3.68937"
			},
			{
				"title":"CALLE DEL CAOLIN N.9",
				"georss:point":"40.39475 -3.68811",
				"geo:lat":"40.39475",
				"geo:long":"-3.68811"
			},
			{
				"title":"CALLE DEL PARROCO EUSEBIO CUENCA N.62",
				"georss:point":"40.39361 -3.68773",
				"geo:lat":"40.39361",
				"geo:long":"-3.68773"
			},
			{
				"title":"PLAZA DE LEGAZPI N.1",
				"georss:point":"40.39161 -3.69487",
				"geo:lat":"40.39161",
				"geo:long":"-3.69487"
			},
			{
				"title":"PASEO DE LAS DELICIAS N.63",
				"georss:point":"40.3999 -3.69395",
				"geo:lat":"40.3999",
				"geo:long":"-3.69395"
			},
			{
				"title":"PASEO DE LAS DELICIAS N.68",
				"georss:point":"40.39928 -3.69426",
				"geo:lat":"40.39928",
				"geo:long":"-3.69426"
			},
			{
				"title":"PASEO DE LAS DELICIAS N.71",
				"georss:point":"40.39733 -3.69425",
				"geo:lat":"40.39733",
				"geo:long":"-3.69425"
			},
			{
				"title":"PASEO DE LAS DELICIAS N.87",
				"georss:point":"40.39609 -3.69438",
				"geo:lat":"40.39609",
				"geo:long":"-3.69438"
			},
			{
				"title":"PLAZA DE LA BEATA MARIA ANA DE JESUS N.15",
				"georss:point":"40.39476 -3.6948",
				"geo:lat":"40.39476",
				"geo:long":"-3.6948"
			},
			{
				"title":"PLAZA DE LA BEATA MARIA ANA DE JESUS N.5",
				"georss:point":"40.39415 -3.69403",
				"geo:lat":"40.39415",
				"geo:long":"-3.69403"
			},
			{
				"title":"PLAZA DE LA BEATA MARIA ANA DE JESUS N.8",
				"georss:point":"40.3937 -3.69449",
				"geo:lat":"40.3937",
				"geo:long":"-3.69449"
			},
			{
				"title":"PLAZA DEL AMANECER EN MENDEZ ALVARO N.1",
				"georss:point":"40.39903 -3.68447",
				"geo:lat":"40.39903",
				"geo:long":"-3.68447"
			},
			{
				"title":"CALLE DE EMBAJADORES N.83",
				"georss:point":"40.40184 -3.69986",
				"geo:lat":"40.40184",
				"geo:long":"-3.69986"
			},
			{
				"title":"CALLE DE FRAY LUIS DE LEON N.11",
				"georss:point":"40.40423 -3.69826",
				"geo:lat":"40.40423",
				"geo:long":"-3.69826"
			},
			{
				"title":"CALLE DE FRAY LUIS DE LEON N.18",
				"georss:point":"40.40303 -3.69762",
				"geo:lat":"40.40303",
				"geo:long":"-3.69762"
			},
			{
				"title":"CALLE DE JOSE ANTONIO DE ARMONA N.2",
				"georss:point":"40.40614 -3.69783",
				"geo:lat":"40.40614",
				"geo:long":"-3.69783"
			},
			{
				"title":"CALLE DE LA BATALLA DEL SALADO N.3",
				"georss:point":"40.40442 -3.69586",
				"geo:lat":"40.40442",
				"geo:long":"-3.69586"
			},
			{
				"title":"CALLE DE LAS CANARIAS N.17",
				"georss:point":"40.40205 -3.69555",
				"geo:lat":"40.40205",
				"geo:long":"-3.69555"
			},
			{
				"title":"CALLE DE LAS CANARIAS N.51",
				"georss:point":"40.4016 -3.68931",
				"geo:lat":"40.4016",
				"geo:long":"-3.68931"
			},
			{
				"title":"CALLE DE LAS DELICIAS N.31",
				"georss:point":"40.40408 -3.69169",
				"geo:lat":"40.40408",
				"geo:long":"-3.69169"
			},
			{
				"title":"CALLE DE MARTIN SOLER N.1",
				"georss:point":"40.40274 -3.69749",
				"geo:lat":"40.40274",
				"geo:long":"-3.69749"
			},
			{
				"title":"CALLE DE MENDEZ ALVARO N.24",
				"georss:point":"40.40259 -3.68834",
				"geo:lat":"40.40259",
				"geo:long":"-3.68834"
			},
			{
				"title":"PASEO DE LAS DELICIAS N.24",
				"georss:point":"40.40532 -3.69366",
				"geo:lat":"40.40532",
				"geo:long":"-3.69366"
			},
			{
				"title":"CALLE DE PALOS DE LA FRONTERA N.14",
				"georss:point":"40.40288 -3.69928",
				"geo:lat":"40.40288",
				"geo:long":"-3.69928"
			},
			{
				"title":"CALLE DE PALOS DE LA FRONTERA N.27",
				"georss:point":"40.403 -3.69473",
				"geo:lat":"40.403",
				"geo:long":"-3.69473"
			},
			{
				"title":"CALLE DE BERNARDINO OBREGON N.12",
				"georss:point":"40.40449 -3.70017",
				"geo:lat":"40.40449",
				"geo:long":"-3.70017"
			},
			{
				"title":"CALLE DE SEBASTIAN ELCANO N.44",
				"georss:point":"40.40525 -3.69561",
				"geo:lat":"40.40525",
				"geo:long":"-3.69561"
			},
			{
				"title":"CALLE DE SEBASTIAN HERRERA N.1",
				"georss:point":"40.40338 -3.70102",
				"geo:lat":"40.40338",
				"geo:long":"-3.70102"
			},
			{
				"title":"CALLE DEL FERROCARRIL N.20",
				"georss:point":"40.40102 -3.69578",
				"geo:lat":"40.40102",
				"geo:long":"-3.69578"
			},
			{
				"title":"CALLE DEL FERROCARRIL N.38",
				"georss:point":"40.40111 -3.69786",
				"geo:lat":"40.40111",
				"geo:long":"-3.69786"
			},
			{
				"title":"CALLE DEL FERROCARRIL N.44",
				"georss:point":"40.40108 -3.69859",
				"geo:lat":"40.40108",
				"geo:long":"-3.69859"
			},
			{
				"title":"CALLE DE MURCIA N.32",
				"georss:point":"40.40502 -3.69084",
				"geo:lat":"40.40502",
				"geo:long":"-3.69084"
			},
			{
				"title":"CALLE DEL GENERAL LACY N.26",
				"georss:point":"40.40301 -3.69087",
				"geo:lat":"40.40301",
				"geo:long":"-3.69087"
			},
			{
				"title":"CALLE DEL GENERAL LACY N.48",
				"georss:point":"40.40122 -3.6911",
				"geo:lat":"40.40122",
				"geo:long":"-3.6911"
			},
			{
				"title":"CALLE DEL GENERAL LACY N.52",
				"georss:point":"40.40078 -3.69082",
				"geo:lat":"40.40078",
				"geo:long":"-3.69082"
			},
			{
				"title":"PASEO DE LAS DELICIAS N.19",
				"georss:point":"40.40512 -3.69333",
				"geo:lat":"40.40512",
				"geo:long":"-3.69333"
			},
			{
				"title":"PASEO DE LAS DELICIAS N.44",
				"georss:point":"40.40224 -3.69395",
				"geo:lat":"40.40224",
				"geo:long":"-3.69395"
			},
			{
				"title":"PASEO DE LAS DELICIAS N.45",
				"georss:point":"40.40326 -3.69354",
				"geo:lat":"40.40326",
				"geo:long":"-3.69354"
			},
			{
				"title":"PASEO DE LAS DELICIAS N.46",
				"georss:point":"40.40164 -3.69402",
				"geo:lat":"40.40164",
				"geo:long":"-3.69402"
			},
			{
				"title":"PASEO DE LAS DELICIAS N.9",
				"georss:point":"40.40602 -3.69323",
				"geo:lat":"40.40602",
				"geo:long":"-3.69323"
			},
			{
				"title":"PLAZA DE LUCA DE TENA N.4",
				"georss:point":"40.402 -3.693695",
				"geo:lat":"40.402",
				"geo:long":"-3.693695"
			},
			{
				"title":"PLAZA DEL EMPERADOR CARLOS V N.5",
				"georss:point":"40.407 -3.69363",
				"geo:lat":"40.407",
				"geo:long":"-3.69363"
			},
			{
				"title":"RONDA DE VALENCIA N.7",
				"georss:point":"40.40525 -3.70129",
				"geo:lat":"40.40525",
				"geo:long":"-3.70129"
			},
			{
				"title":"CALLE DE LA RETAMA N.12",
				"georss:point":"40.39388 -3.67669",
				"geo:lat":"40.39388",
				"geo:long":"-3.67669"
			},
			{
				"title":"CALLE DE MENDEZ ALVARO N.77",
				"georss:point":"40.39598 -3.67996",
				"geo:lat":"40.39598",
				"geo:long":"-3.67996"
			},
			{
				"title":"CALLE DEL JACARANDA N.1",
				"georss:point":"40.39884 -3.6778",
				"geo:lat":"40.39884",
				"geo:long":"-3.6778"
			},
			{
				"title":"AVENIDA DE LA CIUDAD DE BARCELONA N.108",
				"georss:point":"40.4049 -3.68308",
				"geo:lat":"40.4049",
				"geo:long":"-3.68308"
			},
			{
				"title":"AVENIDA DE LA CIUDAD DE BARCELONA N.138",
				"georss:point":"40.40366 -3.6797",
				"geo:lat":"40.40366",
				"geo:long":"-3.6797"
			},
			{
				"title":"AVENIDA DE LA CIUDAD DE BARCELONA N.142",
				"georss:point":"40.40325 -3.67887",
				"geo:lat":"40.40325",
				"geo:long":"-3.67887"
			},
			{
				"title":"AVENIDA DE LA CIUDAD DE BARCELONA N.150",
				"georss:point":"40.40277 -3.67796",
				"geo:lat":"40.40277",
				"geo:long":"-3.67796"
			},
			{
				"title":"PLAZA DE DAOIZ Y VELARDE N.1",
				"georss:point":"40.40248 -3.67743",
				"geo:lat":"40.40248",
				"geo:long":"-3.67743"
			},
			{
				"title":"AVENIDA DE LA CIUDAD DE BARCELONA N.17",
				"georss:point":"40.40467 -3.68163",
				"geo:lat":"40.40467",
				"geo:long":"-3.68163"
			},
			{
				"title":"AVENIDA DE LA CIUDAD DE BARCELONA N.176",
				"georss:point":"40.40186 -3.67627",
				"geo:lat":"40.40186",
				"geo:long":"-3.67627"
			},
			{
				"title":"AVENIDA DE LA CIUDAD DE BARCELONA N.184",
				"georss:point":"40.40129 -3.67518",
				"geo:lat":"40.40129",
				"geo:long":"-3.67518"
			},
			{
				"title":"AVENIDA DE LA CIUDAD DE BARCELONA N.23",
				"georss:point":"40.40442 -3.68099",
				"geo:lat":"40.40442",
				"geo:long":"-3.68099"
			},
			{
				"title":"AVENIDA DE LA CIUDAD DE BARCELONA N.25",
				"georss:point":"40.40429 -3.68067",
				"geo:lat":"40.40429",
				"geo:long":"-3.68067"
			},
			{
				"title":"AVENIDA DE LA CIUDAD DE BARCELONA N.35",
				"georss:point":"40.40384 -3.67948",
				"geo:lat":"40.40384",
				"geo:long":"-3.67948"
			},
			{
				"title":"AVENIDA DE LA CIUDAD DE BARCELONA N.57",
				"georss:point":"40.40237 -3.67672",
				"geo:lat":"40.40237",
				"geo:long":"-3.67672"
			},
			{
				"title":"AVENIDA DE LA CIUDAD DE BARCELONA N.6",
				"georss:point":"40.40579 -3.6854",
				"geo:lat":"40.40579",
				"geo:long":"-3.6854"
			},
			{
				"title":"AVENIDA DE MENENDEZ PELAYO N.113",
				"georss:point":"40.40529 -3.68006",
				"geo:lat":"40.40529",
				"geo:long":"-3.68006"
			},
			{
				"title":"AVENIDA DE MENENDEZ PELAYO N.24",
				"georss:point":"40.40652 -3.67964",
				"geo:lat":"40.40652",
				"geo:long":"-3.67964"
			},
			{
				"title":"AVENIDA DE MENENDEZ PELAYO N.36",
				"georss:point":"40.40548 -3.68031",
				"geo:lat":"40.40548",
				"geo:long":"-3.68031"
			},
			{
				"title":"CALLE DE ABTAO N.7",
				"georss:point":"40.40372 -3.67653",
				"geo:lat":"40.40372",
				"geo:long":"-3.67653"
			},
			{
				"title":"CALLE DE ABTAO N.18",
				"georss:point":"40.40443 -3.67591",
				"geo:lat":"40.40443",
				"geo:long":"-3.67591"
			},
			{
				"title":"PASEO DE LA REINA CRISTINA N.16",
				"georss:point":"40.40678 -3.68202",
				"geo:lat":"40.40678",
				"geo:long":"-3.68202"
			},
			{
				"title":"CALLE DE ANTONIO NEBRIJA N.9",
				"georss:point":"40.40317 -3.6842",
				"geo:lat":"40.40317",
				"geo:long":"-3.6842"
			},
			{
				"title":"CALLE DE CAVANILLES N.16",
				"georss:point":"40.40662 -3.67744",
				"geo:lat":"40.40662",
				"geo:long":"-3.67744"
			},
			{
				"title":"CALLE DE CAVANILLES N.21",
				"georss:point":"40.40614 -3.67586",
				"geo:lat":"40.40614",
				"geo:long":"-3.67586"
			},
			{
				"title":"CALLE DE CAVANILLES N.38",
				"georss:point":"40.40553 -3.67519",
				"geo:lat":"40.40553",
				"geo:long":"-3.67519"
			},
			{
				"title":"CALLE DE CAVANILLES N.41",
				"georss:point":"40.40471 -3.67358",
				"geo:lat":"40.40471",
				"geo:long":"-3.67358"
			},
			{
				"title":"CALLE DE FUENTERRABIA N.11",
				"georss:point":"40.40636 -3.68201",
				"geo:lat":"40.40636",
				"geo:long":"-3.68201"
			},
			{
				"title":"CALLE DE GRANADA N.27",
				"georss:point":"40.40429 -3.67788",
				"geo:lat":"40.40429",
				"geo:long":"-3.67788"
			},
			{
				"title":"CALLE DE GUTENBERG N.11",
				"georss:point":"40.4063 -3.6808",
				"geo:lat":"40.4063",
				"geo:long":"-3.6808"
			},
			{
				"title":"CALLE DE JUAN DE URBIETA N.22",
				"georss:point":"40.40503 -3.67701",
				"geo:lat":"40.40503",
				"geo:long":"-3.67701"
			},
			{
				"title":"CALLE DE JUAN DE URBIETA N.41",
				"georss:point":"40.40709 -3.67564",
				"geo:lat":"40.40709",
				"geo:long":"-3.67564"
			},
			{
				"title":"CALLE DE LA CARIDAD N.40",
				"georss:point":"40.40264 -3.67489",
				"geo:lat":"40.40264",
				"geo:long":"-3.67489"
			},
			{
				"title":"CALLE DE LAS COCHERAS N.1",
				"georss:point":"40.40077 -3.67638",
				"geo:lat":"40.40077",
				"geo:long":"-3.67638"
			},
			{
				"title":"CALLE DE LAS COCHERAS N.3",
				"georss:point":"40.39995 -3.67705",
				"geo:lat":"40.39995",
				"geo:long":"-3.67705"
			},
			{
				"title":"CALLE DE NARCISO SERRA N.10",
				"georss:point":"40.40479 -3.67895",
				"geo:lat":"40.40479",
				"geo:long":"-3.67895"
			},
			{
				"title":"CALLE DE NARCISO SERRA N.25",
				"georss:point":"40.40622 -3.67802",
				"geo:lat":"40.40622",
				"geo:long":"-3.67802"
			},
			{
				"title":"CALLE DE TELLEZ N.29",
				"georss:point":"40.40193 -3.67836",
				"geo:lat":"40.40193",
				"geo:long":"-3.67836"
			},
			{
				"title":"CALLE DE TELLEZ N.3",
				"georss:point":"40.40385 -3.68323",
				"geo:lat":"40.40385",
				"geo:long":"-3.68323"
			},
			{
				"title":"CALLE DE TELLEZ N.31",
				"georss:point":"40.40106 -3.67855",
				"geo:lat":"40.40106",
				"geo:long":"-3.67855"
			},
			{
				"title":"CALLE DE TELLEZ N.50",
				"georss:point":"40.40113 -3.67965",
				"geo:lat":"40.40113",
				"geo:long":"-3.67965"
			},
			{
				"title":"CALLE DE VALDERRIBAS N.51",
				"georss:point":"40.40371 -3.67393",
				"geo:lat":"40.40371",
				"geo:long":"-3.67393"
			},
			{
				"title":"CALLE DE VANDERGOTEN N.1",
				"georss:point":"40.4054 -3.68276",
				"geo:lat":"40.4054",
				"geo:long":"-3.68276"
			},
			{
				"title":"CALLE DE ANDRES TORREJON N.3",
				"georss:point":"40.40544 -3.68145",
				"geo:lat":"40.40544",
				"geo:long":"-3.68145"
			},
			{
				"title":"CALLE DEL COMERCIO N.1",
				"georss:point":"40.40366 -3.68121",
				"geo:lat":"40.40366",
				"geo:long":"-3.68121"
			},
			{
				"title":"CALLE DEL COMERCIO N.4",
				"georss:point":"40.40364 -3.6815",
				"geo:lat":"40.40364",
				"geo:long":"-3.6815"
			},
			{
				"title":"CALLE DEL COMERCIO N.8",
				"georss:point":"40.40287 -3.68198",
				"geo:lat":"40.40287",
				"geo:long":"-3.68198"
			},
			{
				"title":"CALLE DEL DOCTOR ESQUERDO N.140",
				"georss:point":"40.40516 -3.67158",
				"geo:lat":"40.40516",
				"geo:long":"-3.67158"
			},
			{
				"title":"CALLE DEL DOCTOR ESQUERDO N.160",
				"georss:point":"40.40317 -3.67334",
				"geo:lat":"40.40317",
				"geo:long":"-3.67334"
			},
			{
				"title":"CALLE DEL DOCTOR ESQUERDO N.182",
				"georss:point":"40.40168 -3.67468",
				"geo:lat":"40.40168",
				"geo:long":"-3.67468"
			},
			{
				"title":"PASEO DE LA INFANTA ISABEL N.25",
				"georss:point":"40.40631 -3.68646",
				"geo:lat":"40.40631",
				"geo:long":"-3.68646"
			},
			{
				"title":"PASEO DE LA INFANTA ISABEL N.4",
				"georss:point":"40.40625 -3.6858",
				"geo:lat":"40.40625",
				"geo:long":"-3.6858"
			},
			{
				"title":"PASEO DE LA REINA CRISTINA N.28",
				"georss:point":"40.40717 -3.68031",
				"geo:lat":"40.40717",
				"geo:long":"-3.68031"
			},
			{
				"title":"PASEO DE LA REINA CRISTINA N.5",
				"georss:point":"40.40656 -3.68374",
				"geo:lat":"40.40656",
				"geo:long":"-3.68374"
			},
			{
				"title":"CALLE DE CAVANILLES N.1",
				"georss:point":"40.40732 -3.67831",
				"geo:lat":"40.40732",
				"geo:long":"-3.67831"
			},
			{
				"title":"PLAZA DEL CONDE DE CASAL N.8",
				"georss:point":"40.40637 -3.6708",
				"geo:lat":"40.40637",
				"geo:long":"-3.6708"
			},
			{
				"title":"TRAVESIA DE TELLEZ N.1",
				"georss:point":"40.40249 -3.68053",
				"geo:lat":"40.40249",
				"geo:long":"-3.68053"
			},
			{
				"title":"AVENIDA DE LA CIUDAD DE BARCELONA N.103",
				"georss:point":"40.3996 -3.6715",
				"geo:lat":"40.3996",
				"geo:long":"-3.6715"
			},
			{
				"title":"AVENIDA DE LA CIUDAD DE BARCELONA N.115",
				"georss:point":"40.39865 -3.66969",
				"geo:lat":"40.39865",
				"geo:long":"-3.66969"
			},
			{
				"title":"AVENIDA DE LA CIUDAD DE BARCELONA N.202",
				"georss:point":"40.40027 -3.67316",
				"geo:lat":"40.40027",
				"geo:long":"-3.67316"
			},
			{
				"title":"AVENIDA DE LA CIUDAD DE BARCELONA N.202",
				"georss:point":"40.40035 -3.67287",
				"geo:lat":"40.40035",
				"geo:long":"-3.67287"
			},
			{
				"title":"CALLE DE ARREGUI Y ARUEJ N.14",
				"georss:point":"40.40137 -3.66828",
				"geo:lat":"40.40137",
				"geo:long":"-3.66828"
			},
			{
				"title":"CALLE DE ARREGUI Y ARUEJ N.31",
				"georss:point":"40.40261 -3.66795",
				"geo:lat":"40.40261",
				"geo:long":"-3.66795"
			},
			{
				"title":"CALLE DE BARRILERO N.3",
				"georss:point":"40.39779 -3.67325",
				"geo:lat":"40.39779",
				"geo:long":"-3.67325"
			},
			{
				"title":"CALLE DE ANDALUCIA N.19",
				"georss:point":"40.40134 -3.67189",
				"geo:lat":"40.40134",
				"geo:long":"-3.67189"
			},
			{
				"title":"CALLE DE FEDERICO MORENO TORROBA N.1",
				"georss:point":"40.40558 -3.66802",
				"geo:lat":"40.40558",
				"geo:long":"-3.66802"
			},
			{
				"title":"CALLE DE FEDERICO MORENO TORROBA N.3",
				"georss:point":"40.40587 -3.66684",
				"geo:lat":"40.40587",
				"geo:long":"-3.66684"
			},
			{
				"title":"CALLE DE JATIVA N.2",
				"georss:point":"40.39861 -3.67534",
				"geo:lat":"40.39861",
				"geo:long":"-3.67534"
			},
			{
				"title":"CALLE DE LAS ADELFAS N.24",
				"georss:point":"40.40385 -3.6716",
				"geo:lat":"40.40385",
				"geo:long":"-3.6716"
			},
			{
				"title":"CALLE DE LOS PAJARITOS N.4",
				"georss:point":"40.40252 -3.6718",
				"geo:lat":"40.40252",
				"geo:long":"-3.6718"
			},
			{
				"title":"CALLE DE ANDALUCIA N.15",
				"georss:point":"40.40158 -3.67243",
				"geo:lat":"40.40158",
				"geo:long":"-3.67243"
			},
			{
				"title":"CALLE DE LUIS MITJANS N.38",
				"georss:point":"40.40111 -3.67028",
				"geo:lat":"40.40111",
				"geo:long":"-3.67028"
			},
			{
				"title":"CALLE DE LUIS MITJANS N.52",
				"georss:point":"40.40344 -3.6697",
				"geo:lat":"40.40344",
				"geo:long":"-3.6697"
			},
			{
				"title":"CALLE DE LUIS PEIDRO N.2",
				"georss:point":"40.39715 -3.67338",
				"geo:lat":"40.39715",
				"geo:long":"-3.67338"
			},
			{
				"title":"CALLE DE LUIS MITJANS N.54",
				"georss:point":"40.40378 -3.66897",
				"geo:lat":"40.40378",
				"geo:long":"-3.66897"
			},
			{
				"title":"CALLE DE SANTA SABINA N.3",
				"georss:point":"40.40518 -3.67056",
				"geo:lat":"40.40518",
				"geo:long":"-3.67056"
			},
			{
				"title":"CALLE DE SECO N.2",
				"georss:point":"40.39931 -3.67183",
				"geo:lat":"40.39931",
				"geo:long":"-3.67183"
			},
			{
				"title":"CALLE DE TRIQUET N.8",
				"georss:point":"40.39972 -3.66883",
				"geo:lat":"40.39972",
				"geo:long":"-3.66883"
			},
			{
				"title":"CALLE DEL CAFETO N.5",
				"georss:point":"40.39884 -3.67366",
				"geo:lat":"40.39884",
				"geo:long":"-3.67366"
			},
			{
				"title":"CALLE DEL CERRO NEGRO N.3",
				"georss:point":"40.39764 -3.67067",
				"geo:lat":"40.39764",
				"geo:long":"-3.67067"
			},
			{
				"title":"CALLE DEL CERRO NEGRO N.12",
				"georss:point":"40.39636 -3.67191",
				"geo:lat":"40.39636",
				"geo:long":"-3.67191"
			},
			{
				"title":"CALLE DEL DOCTOR ESQUERDO N.185",
				"georss:point":"40.40459 -3.67156",
				"geo:lat":"40.40459",
				"geo:long":"-3.67156"
			},
			{
				"title":"CALLE DEL DOCTOR ESQUERDO N.197",
				"georss:point":"40.40302 -3.67298",
				"geo:lat":"40.40302",
				"geo:long":"-3.67298"
			},
			{
				"title":"AVENIDA DEL MEDITERRANEO N.59",
				"georss:point":"40.40688 -3.66731",
				"geo:lat":"40.40688",
				"geo:long":"-3.66731"
			},
			{
				"title":"CALLE DE JOSE MARTINEZ DE VELASCO N.12",
				"georss:point":"40.41589 -3.66738",
				"geo:lat":"40.41589",
				"geo:long":"-3.66738"
			},
			{
				"title":"CALLE DE JOSE MARTINEZ DE VELASCO N.20",
				"georss:point":"40.41497 -3.66745",
				"geo:lat":"40.41497",
				"geo:long":"-3.66745"
			},
			{
				"title":"CALLE DE JUAN ESPLANDIU N.1",
				"georss:point":"40.41491 -3.66596",
				"geo:lat":"40.41491",
				"geo:long":"-3.66596"
			},
			{
				"title":"CALLE DE JUAN ESPLANDIU N.12",
				"georss:point":"40.4181 -3.66154",
				"geo:lat":"40.4181",
				"geo:long":"-3.66154"
			},
			{
				"title":"CALLE DEL MARQUES DE LOZOYA N.34",
				"georss:point":"40.41852 -3.66223",
				"geo:lat":"40.41852",
				"geo:long":"-3.66223"
			},
			{
				"title":"CALLE DE JUAN ESPLANDIU N.22",
				"georss:point":"40.41682 -3.66333",
				"geo:lat":"40.41682",
				"geo:long":"-3.66333"
			},
			{
				"title":"CALLE DE JUAN ESPLANDIU N.4",
				"georss:point":"40.41597 -3.66262",
				"geo:lat":"40.41597",
				"geo:long":"-3.66262"
			},
			{
				"title":"CALLE DE JUAN ESPLANDIU N.6",
				"georss:point":"40.41677 -3.6625",
				"geo:lat":"40.41677",
				"geo:long":"-3.6625"
			},
			{
				"title":"CALLE DE LA CRUZ DEL SUR N.15",
				"georss:point":"40.40979 -3.66837",
				"geo:lat":"40.40979",
				"geo:long":"-3.66837"
			},
			{
				"title":"CALLE DE LA CRUZ DEL SUR N.26",
				"georss:point":"40.41021 -3.66879",
				"geo:lat":"40.41021",
				"geo:long":"-3.66879"
			},
			{
				"title":"CALLE DE LA CRUZ DEL SUR N.5",
				"georss:point":"40.41172 -3.66819",
				"geo:lat":"40.41172",
				"geo:long":"-3.66819"
			},
			{
				"title":"CALLE DE LA ESTRELLA POLAR N.19",
				"georss:point":"40.41112 -3.66416",
				"geo:lat":"40.41112",
				"geo:long":"-3.66416"
			},
			{
				"title":"CALLE DE LA ESTRELLA POLAR N.8",
				"georss:point":"40.41053 -3.66639",
				"geo:lat":"40.41053",
				"geo:long":"-3.66639"
			},
			{
				"title":"CALLE DE LA ESTRELLA POLAR N.22",
				"georss:point":"40.41107 -3.66624",
				"geo:lat":"40.41107",
				"geo:long":"-3.66624"
			},
			{
				"title":"CALLE DE LA LIRA N.10",
				"georss:point":"40.40825 -3.66753",
				"geo:lat":"40.40825",
				"geo:long":"-3.66753"
			},
			{
				"title":"CALLE DE LA LIRA N.2",
				"georss:point":"40.40853 -3.66987",
				"geo:lat":"40.40853",
				"geo:long":"-3.66987"
			},
			{
				"title":"CALLE DE LAS VAQUERIAS N.7",
				"georss:point":"40.41863 -3.66737",
				"geo:lat":"40.41863",
				"geo:long":"-3.66737"
			},
			{
				"title":"CALLE DE LOS ASTROS N.1",
				"georss:point":"40.41163 -3.66959",
				"geo:lat":"40.41163",
				"geo:long":"-3.66959"
			},
			{
				"title":"CALLE DE LOS ASTROS N.11",
				"georss:point":"40.41109 -3.66785",
				"geo:lat":"40.41109",
				"geo:long":"-3.66785"
			},
			{
				"title":"CALLE DE MATEO LOPEZ N.11",
				"georss:point":"40.42032 -3.66709",
				"geo:lat":"40.42032",
				"geo:long":"-3.66709"
			},
			{
				"title":"CALLE DE SALIENTE N.6",
				"georss:point":"40.41972 -3.66642",
				"geo:lat":"40.41972",
				"geo:long":"-3.66642"
			},
			{
				"title":"CALLE DE SIRIO N.14",
				"georss:point":"40.41263 -3.66297",
				"geo:lat":"40.41263",
				"geo:long":"-3.66297"
			},
			{
				"title":"CALLE DE SIRIO N.22",
				"georss:point":"40.41226 -3.66322",
				"geo:lat":"40.41226",
				"geo:long":"-3.66322"
			},
			{
				"title":"CALLE DE SIRIO N.42",
				"georss:point":"40.41054 -3.66415",
				"geo:lat":"40.41054",
				"geo:long":"-3.66415"
			},
			{
				"title":"CALLE DE SIRIO N.66",
				"georss:point":"40.40867 -3.66562",
				"geo:lat":"40.40867",
				"geo:long":"-3.66562"
			},
			{
				"title":"CALLE DEL ALCALDE SAINZ DE BARANDA N.107",
				"georss:point":"40.41861 -3.66552",
				"geo:lat":"40.41861",
				"geo:long":"-3.66552"
			},
			{
				"title":"CALLE DEL ALCALDE SAINZ DE BARANDA N.67",
				"georss:point":"40.41673 -3.66907",
				"geo:lat":"40.41673",
				"geo:long":"-3.66907"
			},
			{
				"title":"CALLE DEL ALCALDE SAINZ DE BARANDA N.68",
				"georss:point":"40.41676 -3.66842",
				"geo:lat":"40.41676",
				"geo:long":"-3.66842"
			},
			{
				"title":"CALLE DEL ALCALDE SAINZ DE BARANDA N.90",
				"georss:point":"40.41907 -3.66532",
				"geo:lat":"40.41907",
				"geo:long":"-3.66532"
			},
			{
				"title":"CALLE DEL ALCALDE SAINZ DE BARANDA N.97",
				"georss:point":"40.41763 -3.66712",
				"geo:lat":"40.41763",
				"geo:long":"-3.66712"
			},
			{
				"title":"CALLE DEL DOCTOR ESQUERDO N.107",
				"georss:point":"40.41455 -3.66932",
				"geo:lat":"40.41455",
				"geo:long":"-3.66932"
			},
			{
				"title":"CALLE DEL DOCTOR ESQUERDO N.117",
				"georss:point":"40.41354 -3.66943",
				"geo:lat":"40.41354",
				"geo:long":"-3.66943"
			},
			{
				"title":"CALLE DEL DOCTOR ESQUERDO N.169",
				"georss:point":"40.40754 -3.66995",
				"geo:lat":"40.40754",
				"geo:long":"-3.66995"
			},
			{
				"title":"CALLE DEL DOCTOR ESQUERDO N.57",
				"georss:point":"40.42038 -3.66887",
				"geo:lat":"40.42038",
				"geo:long":"-3.66887"
			},
			{
				"title":"CALLE DEL DOCTOR ESQUERDO N.79",
				"georss:point":"40.4188 -3.66898",
				"geo:lat":"40.4188",
				"geo:long":"-3.66898"
			},
			{
				"title":"CALLE DEL MARQUES DE LOZOYA N.16",
				"georss:point":"40.41753 -3.66346",
				"geo:lat":"40.41753",
				"geo:long":"-3.66346"
			},
			{
				"title":"CALLE DEL MARQUES DE LOZOYA N.23",
				"georss:point":"40.41901 -3.663",
				"geo:lat":"40.41901",
				"geo:long":"-3.663"
			},
			{
				"title":"CALLE DEL MARQUES DE LOZOYA N.29",
				"georss:point":"40.41904 -3.66401",
				"geo:lat":"40.41904",
				"geo:long":"-3.66401"
			},
			{
				"title":"CALLE DEL MARQUES DE LOZOYA N.3",
				"georss:point":"40.41665 -3.66542",
				"geo:lat":"40.41665",
				"geo:long":"-3.66542"
			},
			{
				"title":"CALLE DEL MARQUES DE LOZOYA N.14",
				"georss:point":"40.41697 -3.66397",
				"geo:lat":"40.41697",
				"geo:long":"-3.66397"
			},
			{
				"title":"CALLE DEL PEZ AUSTRAL N.3",
				"georss:point":"40.41352 -3.66596",
				"geo:lat":"40.41352",
				"geo:long":"-3.66596"
			},
			{
				"title":"CALLE DEL PEZ AUSTRAL N.4",
				"georss:point":"40.41373 -3.66621",
				"geo:lat":"40.41373",
				"geo:long":"-3.66621"
			},
			{
				"title":"CALLE DEL PEZ VOLADOR N.15",
				"georss:point":"40.41364 -3.66742",
				"geo:lat":"40.41364",
				"geo:long":"-3.66742"
			},
			{
				"title":"CALLE DEL PEZ VOLADOR N.21",
				"georss:point":"40.41427 -3.66559",
				"geo:lat":"40.41427",
				"geo:long":"-3.66559"
			},
			{
				"title":"CALLE DEL PEZ VOLADOR N.32",
				"georss:point":"40.41422 -3.66423",
				"geo:lat":"40.41422",
				"geo:long":"-3.66423"
			},
			{
				"title":"CALLE DEL PEZ VOLADOR N.38",
				"georss:point":"40.41398 -3.66321",
				"geo:lat":"40.41398",
				"geo:long":"-3.66321"
			},
			{
				"title":"PASAJE DE CAN MAYOR N.2",
				"georss:point":"40.41157 -3.66601",
				"geo:lat":"40.41157",
				"geo:long":"-3.66601"
			},
			{
				"title":"PASAJE DEL ESCUDO N.2",
				"georss:point":"40.40965 -3.6677",
				"geo:lat":"40.40965",
				"geo:long":"-3.6677"
			},
			{
				"title":"PASAJE DEL LINCE N.8",
				"georss:point":"40.40868 -3.66781",
				"geo:lat":"40.40868",
				"geo:long":"-3.66781"
			},
			{
				"title":"CALLE DE SIRIO N.70",
				"georss:point":"40.40825 -3.66587",
				"geo:lat":"40.40825",
				"geo:long":"-3.66587"
			},
			{
				"title":"AVENIDA DE MENENDEZ PELAYO N.19",
				"georss:point":"40.41966 -3.67911",
				"geo:lat":"40.41966",
				"geo:long":"-3.67911"
			},
			{
				"title":"AVENIDA DE MENENDEZ PELAYO N.27",
				"georss:point":"40.41883 -3.67881",
				"geo:lat":"40.41883",
				"geo:long":"-3.67881"
			},
			{
				"title":"AVENIDA DE MENENDEZ PELAYO N.41",
				"georss:point":"40.4176 -3.67839",
				"geo:lat":"40.4176",
				"geo:long":"-3.67839"
			},
			{
				"title":"CALLE DE IBIZA N.24",
				"georss:point":"40.4181 -3.6757",
				"geo:lat":"40.4181",
				"geo:long":"-3.6757"
			},
			{
				"title":"CALLE DE IBIZA N.31",
				"georss:point":"40.41832 -3.67469",
				"geo:lat":"40.41832",
				"geo:long":"-3.67469"
			},
			{
				"title":"CALLE DE IBIZA N.41",
				"georss:point":"40.41824 -3.67328",
				"geo:lat":"40.41824",
				"geo:long":"-3.67328"
			},
			{
				"title":"CALLE DE ANTONIO ARIAS N.1",
				"georss:point":"40.41815 -3.67146",
				"geo:lat":"40.41815",
				"geo:long":"-3.67146"
			},
			{
				"title":"CALLE DE IBIZA N.6",
				"georss:point":"40.41819 -3.6776",
				"geo:lat":"40.41819",
				"geo:long":"-3.6776"
			},
			{
				"title":"CALLE DE LOPE DE RUEDA N.59",
				"georss:point":"40.41716 -3.67782",
				"geo:lat":"40.41716",
				"geo:long":"-3.67782"
			},
			{
				"title":"CALLE DE MENORCA N.36",
				"georss:point":"40.41928 -3.67439",
				"geo:lat":"40.41928",
				"geo:long":"-3.67439"
			},
			{
				"title":"CALLE DE MAIQUEZ N.34",
				"georss:point":"40.41924 -3.67312",
				"geo:lat":"40.41924",
				"geo:long":"-3.67312"
			},
			{
				"title":"CALLE DE NARVAEZ N.29",
				"georss:point":"40.4213 -3.67586",
				"geo:lat":"40.4213",
				"geo:long":"-3.67586"
			},
			{
				"title":"CALLE DE NARVAEZ N.38",
				"georss:point":"40.4206 -3.67622",
				"geo:lat":"40.4206",
				"geo:long":"-3.67622"
			},
			{
				"title":"CALLE DE NARVAEZ N.43",
				"georss:point":"40.41954 -3.67601",
				"geo:lat":"40.41954",
				"geo:long":"-3.67601"
			},
			{
				"title":"CALLE DE NARVAEZ N.52",
				"georss:point":"40.41931 -3.67635",
				"geo:lat":"40.41931",
				"geo:long":"-3.67635"
			},
			{
				"title":"CALLE DE NARVAEZ N.53",
				"georss:point":"40.41847 -3.67607",
				"geo:lat":"40.41847",
				"geo:long":"-3.67607"
			},
			{
				"title":"CALLE DE NARVAEZ N.66",
				"georss:point":"40.41806 -3.67639",
				"geo:lat":"40.41806",
				"geo:long":"-3.67639"
			},
			{
				"title":"CALLE DE NARVAEZ N.71",
				"georss:point":"40.41583 -3.67631",
				"geo:lat":"40.41583",
				"geo:long":"-3.67631"
			},
			{
				"title":"CALLE DE O'DONNELL N.36",
				"georss:point":"40.42133 -3.67429",
				"geo:lat":"40.42133",
				"geo:long":"-3.67429"
			},
			{
				"title":"CALLE DEL ALCALDE SAINZ DE BARANDA N.13",
				"georss:point":"40.41705 -3.6761",
				"geo:lat":"40.41705",
				"geo:long":"-3.6761"
			},
			{
				"title":"CALLE DEL ALCALDE SAINZ DE BARANDA N.16",
				"georss:point":"40.41682 -3.67659",
				"geo:lat":"40.41682",
				"geo:long":"-3.67659"
			},
			{
				"title":"CALLE DEL ALCALDE SAINZ DE BARANDA N.28",
				"georss:point":"40.41673 -3.67497",
				"geo:lat":"40.41673",
				"geo:long":"-3.67497"
			},
			{
				"title":"CALLE DEL ALCALDE SAINZ DE BARANDA N.46",
				"georss:point":"40.41659 -3.67237",
				"geo:lat":"40.41659",
				"geo:long":"-3.67237"
			},
			{
				"title":"CALLE DEL ALCALDE SAINZ DE BARANDA N.49",
				"georss:point":"40.4168 -3.67171",
				"geo:lat":"40.4168",
				"geo:long":"-3.67171"
			},
			{
				"title":"CALLE DEL ALCALDE SAINZ DE BARANDA N.65",
				"georss:point":"40.41668 -3.66972",
				"geo:lat":"40.41668",
				"geo:long":"-3.66972"
			},
			{
				"title":"AVENIDA DE MENENDEZ PELAYO N.61",
				"georss:point":"40.41578 -3.67746",
				"geo:lat":"40.41578",
				"geo:long":"-3.67746"
			},
			{
				"title":"CALLE DEL DOCTOR CASTELO N.16",
				"georss:point":"40.42037 -3.67747",
				"geo:lat":"40.42037",
				"geo:long":"-3.67747"
			},
			{
				"title":"AVENIDA DE MENENDEZ PELAYO N.10",
				"georss:point":"40.41836 -3.67896",
				"geo:lat":"40.41836",
				"geo:long":"-3.67896"
			},
			{
				"title":"AVENIDA DE MENENDEZ PELAYO N.13",
				"georss:point":"40.42037 -3.67967",
				"geo:lat":"40.42037",
				"geo:long":"-3.67967"
			},
			{
				"title":"AVENIDA DE MENENDEZ PELAYO N.12",
				"georss:point":"40.41136 -3.67648",
				"geo:lat":"40.41136",
				"geo:long":"-3.67648"
			},
			{
				"title":"AVENIDA DE MENENDEZ PELAYO N.19",
				"georss:point":"40.41965 -3.67944",
				"geo:lat":"40.41965",
				"geo:long":"-3.67944"
			},
			{
				"title":"AVENIDA DE MENENDEZ PELAYO N.43",
				"georss:point":"40.41736 -3.67862",
				"geo:lat":"40.41736",
				"geo:long":"-3.67862"
			},
			{
				"title":"AVENIDA DE MENENDEZ PELAYO N.61",
				"georss:point":"40.41547 -3.67797",
				"geo:lat":"40.41547",
				"geo:long":"-3.67797"
			},
			{
				"title":"AVENIDA DE MENENDEZ PELAYO N.63",
				"georss:point":"40.41497 -3.67778",
				"geo:lat":"40.41497",
				"geo:long":"-3.67778"
			},
			{
				"title":"AVENIDA DE MENENDEZ PELAYO N.79",
				"georss:point":"40.40953 -3.67764",
				"geo:lat":"40.40953",
				"geo:long":"-3.67764"
			},
			{
				"title":"AVENIDA DE MENENDEZ PELAYO N.9",
				"georss:point":"40.421272 -3.679982",
				"geo:lat":"40.421272",
				"geo:long":"-3.679982"
			},
			{
				"title":"CALLE DE ALCALA N.60",
				"georss:point":"40.42064 -3.68468",
				"geo:lat":"40.42064",
				"geo:long":"-3.68468"
			},
			{
				"title":"CALLE DE ALCALA N.83",
				"georss:point":"40.42034 -3.6861",
				"geo:lat":"40.42034",
				"geo:long":"-3.6861"
			},
			{
				"title":"CALLE DE ALFONSO XII N.1",
				"georss:point":"40.41525 -3.68886",
				"geo:lat":"40.41525",
				"geo:long":"-3.68886"
			},
			{
				"title":"CALLE DE ALFONSO XII N.14",
				"georss:point":"40.41781 -3.68873",
				"geo:lat":"40.41781",
				"geo:long":"-3.68873"
			},
			{
				"title":"CALLE DE ALFONSO XII N.17",
				"georss:point":"40.40774 -3.68851",
				"geo:lat":"40.40774",
				"geo:long":"-3.68851"
			},
			{
				"title":"CALLE DE ALFONSO XII N.20",
				"georss:point":"40.41685 -3.68881",
				"geo:lat":"40.41685",
				"geo:long":"-3.68881"
			},
			{
				"title":"CALLE DE ALFONSO XII N.46",
				"georss:point":"40.41275 -3.68869",
				"geo:lat":"40.41275",
				"geo:long":"-3.68869"
			},
			{
				"title":"CALLE DE ALFONSO XII N.3",
				"georss:point":"40.40978 -3.6885",
				"geo:lat":"40.40978",
				"geo:long":"-3.6885"
			},
			{
				"title":"CALLE DE ALFONSO XII N.52",
				"georss:point":"40.4118 -3.68905",
				"geo:lat":"40.4118",
				"geo:long":"-3.68905"
			},
			{
				"title":"CALLE DE ALFONSO XII N.60",
				"georss:point":"40.40885 -3.68887",
				"geo:lat":"40.40885",
				"geo:long":"-3.68887"
			},
			{
				"title":"CALLE DE ALFONSO XII N.19",
				"georss:point":"40.40762 -3.6888",
				"geo:lat":"40.40762",
				"geo:long":"-3.6888"
			},
			{
				"title":"CALLE DE ALFONSO XII N.7",
				"georss:point":"40.40877 -3.68852",
				"geo:lat":"40.40877",
				"geo:long":"-3.68852"
			},
			{
				"title":"CALLE DE ANTONIO MAURA N.1",
				"georss:point":"40.4165 -3.69199",
				"geo:lat":"40.4165",
				"geo:long":"-3.69199"
			},
			{
				"title":"CALLE DE ANTONIO MAURA N.22",
				"georss:point":"40.41655 -3.68924",
				"geo:lat":"40.41655",
				"geo:long":"-3.68924"
			},
			{
				"title":"CALLE DE ANTONIO MAURA N.6",
				"georss:point":"40.4164 -3.69141",
				"geo:lat":"40.4164",
				"geo:long":"-3.69141"
			},
			{
				"title":"CALLE DE ANTONIO MAURA N.7",
				"georss:point":"40.41662 -3.69067",
				"geo:lat":"40.41662",
				"geo:long":"-3.69067"
			},
			{
				"title":"CALLE DE ESPALTER N.5",
				"georss:point":"40.41263 -3.69078",
				"geo:lat":"40.41263",
				"geo:long":"-3.69078"
			},
			{
				"title":"CALLE DE GUTENBERG N.21",
				"georss:point":"40.40832 -3.67954",
				"geo:lat":"40.40832",
				"geo:long":"-3.67954"
			},
			{
				"title":"CALLE DE JUAN VALERA N.26",
				"georss:point":"40.40816 -3.68265",
				"geo:lat":"40.40816",
				"geo:long":"-3.68265"
			},
			{
				"title":"CALLE DE JULIAN GAYARRE N.26",
				"georss:point":"40.40811 -3.68374",
				"geo:lat":"40.40811",
				"geo:long":"-3.68374"
			},
			{
				"title":"CALLE DE MONTALBAN N.14",
				"georss:point":"40.41791 -3.6895",
				"geo:lat":"40.41791",
				"geo:long":"-3.6895"
			},
			{
				"title":"CALLE DE MONTALBAN N.5",
				"georss:point":"40.41821 -3.69079",
				"geo:lat":"40.41821",
				"geo:long":"-3.69079"
			},
			{
				"title":"CALLE DE MORETO N.4",
				"georss:point":"40.41463 -3.69049",
				"geo:lat":"40.41463",
				"geo:long":"-3.69049"
			},
			{
				"title":"CALLE DE O'DONNELL N.1",
				"georss:point":"40.42122 -3.68167",
				"geo:lat":"40.42122",
				"geo:long":"-3.68167"
			},
			{
				"title":"PASEO DE FERNAN NUÑEZ N.30",
				"georss:point":"40.42138 -3.68074",
				"geo:lat":"40.42138",
				"geo:long":"-3.68074"
			},
			{
				"title":"AVENIDA DE MENENDEZ PELAYO N.8",
				"georss:point":"40.42148 -3.68021",
				"geo:lat":"40.42148",
				"geo:long":"-3.68021"
			},
			{
				"title":"CALLE DEL POETA ESTEBAN DE VILLEGAS N.20",
				"georss:point":"40.4083 -3.6785",
				"geo:lat":"40.4083",
				"geo:long":"-3.6785"
			},
			{
				"title":"CALLE DEL POETA ESTEBAN DE VILLEGAS N.8",
				"georss:point":"40.40864 -3.68152",
				"geo:lat":"40.40864",
				"geo:long":"-3.68152"
			},
			{
				"title":"CALLE DE ALFONSO XII N.54",
				"georss:point":"40.41103 -3.689",
				"geo:lat":"40.41103",
				"geo:long":"-3.689"
			},
			{
				"title":"AVENIDA DE MENENDEZ PELAYO N.67",
				"georss:point":"40.41253 -3.6769",
				"geo:lat":"40.41253",
				"geo:long":"-3.6769"
			},
			{
				"title":"PLAZA DE MURILLO N.2",
				"georss:point":"40.41234 -3.6927",
				"geo:lat":"40.41234",
				"geo:long":"-3.6927"
			},